{"version": 0.6, "generator": "Overpass API 0.7.61.8 b1080abd", "osm3s": {"timestamp_osm_base": "2026-02-16T14:09:02Z", "timestamp_areas_base": "2026-02-16T14:09:02Z", "copyright": "The data included in this document is from www.openstreetmap.org. The data is made available under ODbL."}, "elements": [{"type": "node", "id": 264880674, "lat": 23.8166394, "lon": 90.3484888, "tags": {"leisure": "garden", "name": "Botanical Garden"}}, {"type": "node", "id": 265576693, "lat": 23.7666047, "lon": 90.3781728, "tags": {"addr:city": "Dhaka city", "addr:street": "Chandrima uddan, Dhaka", "historic": "monument", "name": "জিয়াউর রহমানের সমাধি", "name:bn": "জিয়াউর রহমানের সমাধি", "name:en": "Tomb of Ziaur Rahman", "name:hi": "ज़ियाउर रहमान का मकबरा", "wikidata": "Q198313", "wikipedia": "en:Ziaur Rahman"}}, {"type": "node", "id": 269655285, "lat": 23.7934023, "lon": 90.4074303, "tags": {"name": "Hotel Sweet Dreams Dhaka", "tourism": "hotel"}}, {"type": "node", "id": 269659084, "lat": 23.7895724, "lon": 90.4132993, "tags": {"name": "hotel Golden Deer", "tourism": "hotel"}}, {"type": "node", "id": 269660721, "lat": 23.8021166, "lon": 90.4085878, "tags": {"check_date": "2024-04-08", "name": "হোটেল লেক ক্যাসেল", "name:en": "Lake Castle Hotel", "phone": "+888812812", "tourism": "hotel", "website": "http://www.hotellakecastle.com"}}, {"type": "node", "id": 269660821, "lat": 23.7932936, "lon": 90.4044419, "tags": {"addr:city": "Dhaka", "addr:city:ur": "ڈھاکہ", "addr:housenumber": "Plot #27", "addr:postcode": "1213", "addr:street": "Road #17", "addr:street:ur": "روڈ 17", "fax": "+88029821120", "name": "Sarina Hotel", "name:ur": "سرینا ہوٹل", "phone": "+88029821111", "stars": "5", "tourism": "hotel", "website": "https://www.sarinahotel.com/", "wheelchair": "yes"}}, {"type": "node", "id": 269661280, "lat": 23.7814391, "lon": 90.4169389, "tags": {"created_by": "Potlatch 0.9c", "name": "Hotel Washington", "tourism": "hotel"}}, {"type": "node", "id": 360606286, "lat": 21.3551355, "lon": 92.0257549, "tags": {"name": "Himchori Falls", "name:en": "Himchori Falls", "tourism": "attraction"}}, {"type": "node", "id": 368383227, "lat": 21.2329536, "lon": 92.0482773, "tags": {"created_by": "Potlatch 0.10f", "name": "DancingWave Picnin Spot", "tourism": "camp_site"}}, {"type": "node", "id": 368385502, "lat": 20.630307, "lon": 92.3170413, "tags": {"name": "Porjoton Abokash", "operator": "Bangladesh Pajatan Corporation", "tourism": "hotel"}}, {"type": "node", "id": 368385509, "lat": 20.6263935, "lon": 92.3170647, "tags": {"created_by": "Potlatch 0.10f", "name": "Shimana Periye", "tourism": "hotel"}}, {"type": "node", "id": 368385552, "lat": 20.6314381, "lon": 92.3188586, "tags": {"name": "জলপরী রিসোর্ট", "name:en": "Jolpori Resort", "tourism": "hotel"}}, {"type": "node", "id": 368385645, "lat": 20.6334864, "lon": 92.3272442, "tags": {"name": "ব্লু মেরিন রিসোর্ট", "name:en": "Blue Marine", "tourism": "hotel"}}, {"type": "node", "id": 387761075, "lat": 23.7255338, "lon": 90.391375, "tags": {"name": "Titumir Hall", "operator": "BUET", "smoking": "no", "tourism": "hostel"}}, {"type": "node", "id": 387762446, "lat": 23.7242559, "lon": 90.390531, "tags": {"name": "Chhatri Hall", "operator": "BUET", "tourism": "hostel"}}, {"type": "node", "id": 387806439, "lat": 23.7280669, "lon": 90.416881, "tags": {"historic": "monument", "name": "Balaka"}}, {"type": "node", "id": 392553072, "lat": 24.2953134, "lon": 91.7472581, "tags": {"name": "Tea Research Institute Guest House", "tourism": "guest_house"}}, {"type": "node", "id": 401826555, "lat": 23.7272114, "lon": 90.3966368, "tags": {"access": "yes", "historic": "monument", "name": "কেন্দ্রীয় শহীদ মিনার", "name:bn": "কেন্দ্রীয় শহীদ মিনার", "name:en": "Central Shaheed Minar", "name:hi": "केंद्रीय शहीद मीनार", "wikidata": "Q2425991", "wikimedia_commons": "Category:Shaheed Minar", "wikipedia": "en:Shaheed Minar, Dhaka"}}, {"type": "node", "id": 412970418, "lat": 23.7806973, "lon": 90.4034988, "tags": {"name": "Hotel Abakash", "tourism": "hotel"}}, {"type": "node", "id": 413498001, "lat": 23.7816101, "lon": 90.4141622, "tags": {"addr:city": "Dhaka", "addr:housenumber": "5", "addr:postcode": "1212", "addr:street": "Road 23A", "name": "Hotel De Crystal Crown", "stars": "3", "tourism": "hotel"}}, {"type": "node", "id": 416019865, "lat": 23.7816833, "lon": 90.414635, "tags": {"addr:city": "Dhaka", "addr:housenumber": "7", "addr:postcode": "1212", "addr:street": "Road 16", "name": "Bengal Inn", "tourism": "hotel"}}, {"type": "node", "id": 416019904, "lat": 23.7989538, "lon": 90.4072628, "tags": {"name": "লরেল হোটেল", "name:bn": "লরেল হোটেল", "name:en": "Laural Hotel", "tourism": "hotel"}}, {"type": "node", "id": 416019906, "lat": 23.7992782, "lon": 90.4073437, "tags": {"name": "মারিনো গেস্ট হাউস", "name:en": "Marino Guest House", "tourism": "guest_house"}}, {"type": "node", "id": 477229387, "lat": 21.9498761, "lon": 92.5145205, "tags": {"ele": "985", "name": "কেওক্রাডং", "name:bn": "কেওক্রাডং", "name:en": "Keokradong", "natural": "peak", "note": "height 985m +/- 4m"}}, {"type": "node", "id": 477231481, "lat": 22.1506745, "lon": 92.2168769, "tags": {"name": "Shailopropat waterfall", "tourism": "attraction"}}, {"type": "node", "id": 477232249, "lat": 22.046735, "lon": 92.4162358, "tags": {"ele": "110", "name": "লাইরাম্পি", "name:bn": "লাইরাম্পি", "name:en": "Lairampi", "natural": "peak", "wpt_description": "15-AUG-09 2:22:42PM"}}, {"type": "node", "id": 477232735, "lat": 21.9936303, "lon": 92.466258, "tags": {"ele": "152.974243", "name": "Patangjhiri", "tourism": "attraction"}}, {"type": "node", "id": 477233477, "lat": 21.9796537, "lon": 92.4713802, "tags": {"name": "Laram", "tourism": "guest_house"}}, {"type": "node", "id": 477234209, "lat": 22.1686077, "lon": 92.2228421, "tags": {"name": "Milon Chori", "tourism": "guest_house"}}, {"type": "node", "id": 619040726, "lat": 23.7233176, "lon": 90.4182171, "tags": {"castle_type": "palace", "historic": "castle", "name": "বঙ্গভবন", "name:bn": "বঙ্গভবন", "name:en": "Bangabhaban", "name:hi": "बंगभवन", "wikidata": "Q4855010", "wikimedia_commons": "Category:Bangabhaban", "wikipedia": "en:Bangabhaban"}}, {"type": "node", "id": 653154596, "lat": 24.8934073, "lon": 91.8637474, "tags": {"addr:street": "Lamabazar Road", "air_conditioning": "yes", "internet_access": "yes", "internet_access:fee": "customers", "name": "Nirvana Inn", "tourism": "hotel"}}, {"type": "node", "id": 656314578, "lat": 22.3577454, "lon": 91.82169, "tags": {"addr:housename": "Bulbul Center, 486/B CDA Ave, Chittagong 4000", "name": "Peninsula Hotel", "phone": "+88 031 2850860", "stars": "4", "tourism": "hotel", "website": "http://www.peninsulactg.com/", "wheelchair": "limited"}}, {"type": "node", "id": 736138142, "lat": 23.7797895, "lon": 90.4101407, "tags": {"name": "BRAC INN", "tourism": "hotel"}}, {"type": "node", "id": 769872157, "lat": 25.759579, "lon": 89.2423416, "tags": {"addr:city": "Rangpur", "addr:housename": "RDRS Guest House", "name": "RDRS Guest House", "tourism": "guest_house"}}, {"type": "node", "id": 773392322, "lat": 24.365344, "lon": 88.599947, "tags": {"addr:city": "Rajshahi", "addr:postcode": "6100", "addr:street": "Shaheb Bazar Zero Point", "crossing": "uncontrolled", "highway": "crossing", "historic": "monument", "kerb": "unknown", "name": "Zero Point", "name:en": "Zero Point"}}, {"type": "node", "id": 830037031, "lat": 23.7264045, "lon": 90.3897246, "tags": {"name": "Suhrawardy Hall", "operator": "BUET", "tourism": "hostel"}}, {"type": "node", "id": 830039614, "lat": 23.7257365, "lon": 90.3905006, "tags": {"name": "Sher-e-Bangla Hall", "operator": "BUET", "tourism": "hostel"}}, {"type": "node", "id": 1118462658, "lat": 23.7254525, "lon": 90.3897284, "tags": {"name": "M. A. Rashid Hall", "operator": "BUET", "tourism": "hostel"}}, {"type": "node", "id": 1119027966, "lat": 23.7261287, "lon": 90.3918607, "tags": {"historic": "memorial", "name": "BUET Shahid Minar"}}, {"type": "node", "id": 1119028073, "lat": 23.7235211, "lon": 90.3933343, "tags": {"name": "কাজী নজরুল ইসলাম হল", "name:en": "Kazi Nazrul Islam Hall", "operator": "BUET", "tourism": "hostel"}}, {"type": "node", "id": 1121485745, "lat": 23.7249764, "lon": 90.3927032, "tags": {"name": "Ahsanullah Hall", "operator": "BUET", "tourism": "hostel"}}, {"type": "node", "id": 1148733440, "lat": 23.7982899, "lon": 90.3535673, "tags": {"internet_access": "wlan", "name": "Grand Prince Hotel", "tourism": "hotel"}}, {"type": "node", "id": 1315270889, "lat": 22.3486171, "lon": 91.8246317, "tags": {"administrative": "Rest house", "name": "Circuit House", "tourism": "guest_house", "wikidata": "Q18987476"}}, {"type": "node", "id": 1358922127, "lat": 22.3758722, "lon": 91.8478973, "tags": {"leisure": "park", "name": "Shaheed Zia Smriti Complex"}}, {"type": "node", "id": 1431986029, "lat": 21.9549403, "lon": 92.065805, "tags": {"leisure": "nature_reserve", "name": "Chunati WIldlife Sanctuary", "natural": "wood", "source": "GPS", "tourism": "attraction", "website": "https://communityecotour.com/Chunati%20Wildlife%20Sanctuary.html"}}, {"type": "node", "id": 1470336195, "lat": 24.3894461, "lon": 89.8141811, "tags": {"name": "Jamuna Resort", "tourism": "attraction"}}, {"type": "node", "id": 1621027575, "lat": 23.3535581, "lon": 91.2756065, "tags": {"leisure": "nature_reserve", "name": "Rajespur Eco Park"}}, {"type": "node", "id": 1676739853, "lat": 23.7171151, "lon": 90.419405, "tags": {"addr:city": "Dhaka", "addr:street": "Wari", "leisure": "nature_reserve", "name": "Baldha Garden"}}, {"type": "node", "id": 1694626932, "lat": 23.9332648, "lon": 90.7069618, "tags": {"addr:city": "Dhaka - Sylhet Hwy", "amenity": "cafe", "historic": "memorial", "name": "Shaheed Tahmid Chattar"}}, {"type": "node", "id": 1738497348, "lat": 23.8157465, "lon": 90.3455833, "tags": {"attraction": "animal", "name": "Snakes", "name:bn": "সাপের খাচা", "tourism": "attraction"}}, {"type": "node", "id": 1738497349, "lat": 23.8114842, "lon": 90.3437505, "tags": {"attraction": "animal", "name": "Guinea Pig", "tourism": "attraction"}}, {"type": "node", "id": 1738497350, "lat": 23.8126025, "lon": 90.3453036, "tags": {"attraction": "animal", "name": "Greater Flamingo", "tourism": "attraction"}}, {"type": "node", "id": 1738537817, "lat": 23.8141694, "lon": 90.3464461, "tags": {"attraction": "animal", "name": "Oriental Pied Hornbill Cage", "tourism": "attraction"}}, {"type": "node", "id": 1748743574, "lat": 23.8143732, "lon": 90.3440451, "tags": {"attraction": "animal", "name": "Donkey cage", "name:bn": "গাধার খাচা", "tourism": "attraction"}}, {"type": "node", "id": 1748743578, "lat": 23.8145943, "lon": 90.3444468, "tags": {"attraction": "animal", "name": "Estuarine Crocodile cage", "tourism": "attraction"}}, {"type": "node", "id": 1748743607, "lat": 23.8125662, "lon": 90.3464659, "tags": {"attraction": "animal", "name": "বানরের খাঁচা", "name:bn": "বানরের খাঁচা", "name:en": "Monkey Cage", "tourism": "attraction"}}, {"type": "node", "id": 1748743610, "lat": 23.815822, "lon": 90.3473446, "tags": {"attraction": "animal", "name": "রয়েল বেঙ্গল বাঘের খাচা", "name:bn": "রয়েল বেঙ্গল বাঘের খাচা", "name:en": "Royal Bengal Tiger Cage", "tourism": "attraction"}}, {"type": "node", "id": 1748743612, "lat": 23.8148748, "lon": 90.3471571, "tags": {"attraction": "animal", "name": "Samber Deer Cage", "name:bn": "সাম্বার হরিণের খাচা", "tourism": "attraction"}}, {"type": "node", "id": 1748743617, "lat": 23.8121333, "lon": 90.3439808, "tags": {"attraction": "animal", "name": "ভোদড় খাঁচা", "name:en": "Sea-lion Cage", "tourism": "attraction"}}, {"type": "node", "id": 1748743621, "lat": 23.8159713, "lon": 90.3460093, "tags": {"attraction": "animal", "name": "Baboons", "name:bn": "বেবুন", "tourism": "attraction"}}, {"type": "node", "id": 1748747209, "lat": 23.8139566, "lon": 90.3464161, "tags": {"attraction": "animal", "name": "Lesser Adjutant Cage", "tourism": "attraction"}}, {"type": "node", "id": 1748747347, "lat": 23.811343, "lon": 90.342373, "tags": {"attraction": "animal", "name": "Orix Cage", "tourism": "attraction"}}, {"type": "node", "id": 1748747348, "lat": 23.8158017, "lon": 90.345183, "tags": {"attraction": "animal", "name": "Peafowl Cage", "name:bn": "ময়ূরের খাচা", "tourism": "attraction"}}, {"type": "node", "id": 1749624366, "lat": 23.5506429, "lon": 90.5349817, "tags": {"name": "Tristar Hotel", "tourism": "hotel"}}, {"type": "node", "id": 1749628052, "lat": 23.5512303, "lon": 90.5346017, "tags": {"amenity": "pharmacy", "name": "Comfort Hotel", "tourism": "hotel"}}, {"type": "node", "id": 1756484460, "lat": 21.423671, "lon": 91.9803041, "tags": {"addr:housenumber": "H-6 Black -B", "addr:postcode": "4700", "addr:street": "Kolatoli Main Road", "email": "kabirhcr@gmail.com", "name": "Hotel Coastal Peace", "name:en": "Hotel Coastal Peace", "opening_hours": "24/7", "operator": "Hotel Coastal Peace", "phone": "+8801779803971", "tourism": "hotel", "website": "http://www.cotelcoastalpeace.com"}}, {"type": "node", "id": 1756484463, "lat": 21.4238283, "lon": 91.9808353, "tags": {"addr:housenumber": "47", "addr:postcode": "4700", "addr:street": "Kolatoli Main Road", "email": "kabirhcr@gmail.com", "name": "Hotel Coral Reef", "name:en": "Hotel Coral Reef", "opening_hours": "24/7", "operator": "Coral Reef", "phone": "+8801779803971", "tourism": "hotel", "website": "http://www.coralreefbd.com"}}, {"type": "node", "id": 1756484473, "lat": 21.424068, "lon": 91.9800439, "tags": {"addr:housenumber": "4 Black :B", "addr:postcode": "4700", "addr:street": "Kolatoli Main Road", "email": "kabirhcr@gmail.com", "name": "Honey Moon Resorts", "name:en": "Honey Moon Resorts", "opening_hours": "24/7", "operator": "Honey Moon Resorts", "phone": "+8801915458398", "tourism": "hotel", "website": "http://www.honeyoonesorts"}}, {"type": "node", "id": 1800906028, "lat": 21.4429256, "lon": 91.9703883, "tags": {"name": "Hotel Renaissance", "name:en": "Hotel Renaissance", "tourism": "hotel"}}, {"type": "node", "id": 1801013492, "lat": 21.4436661, "lon": 91.9729133, "tags": {"name": "Hotel Al Amin", "name:en": "Hotel Al Amin", "tourism": "hotel"}}, {"type": "node", "id": 1801402390, "lat": 21.4457914, "lon": 91.9741807, "tags": {"name": "Rahman Resort", "name:en": "Rahman Resort", "tourism": "hotel"}}, {"type": "node", "id": 1801506960, "lat": 21.4462886, "lon": 91.9740143, "tags": {"name": "Hotel Taj Sheba", "name:en": "Hotel Taj Sheba", "tourism": "hotel"}}, {"type": "node", "id": 1801517277, "lat": 21.4441333, "lon": 91.9739733, "tags": {"amenity": "restaurant", "name": "Hotel Al Gani", "name:en": "Hotel Al Gani", "tourism": "hotel"}}, {"type": "node", "id": 1801570206, "lat": 21.443808, "lon": 91.9748972, "tags": {"name": "Dhaka Hotel", "name:en": "Dhaka Hotel", "tourism": "hotel"}}, {"type": "node", "id": 1801610149, "lat": 21.4433093, "lon": 91.9722174, "tags": {"name": "Hotel Saikat", "name:en": "Hotel Saikat", "tourism": "hotel"}}, {"type": "node", "id": 1801736820, "lat": 21.44535, "lon": 91.9749688, "tags": {"name": "Hotel Sundarban", "name:en": "Hotel Sundarban", "tourism": "hotel"}}, {"type": "node", "id": 1801738846, "lat": 21.4453918, "lon": 91.9749479, "tags": {"name": "Hotel Soudia and Restaurant", "name:en": "Hotel Soudia and Restaurant", "tourism": "hotel"}}, {"type": "node", "id": 1801746889, "lat": 21.4451846, "lon": 91.9753609, "tags": {"name": "Hotel Garden", "name:en": "Hotel Garden", "tourism": "hotel"}}, {"type": "node", "id": 1801756961, "lat": 21.4450325, "lon": 91.9757338, "tags": {"name": "Hotel Nishita", "name:en": "Hotel Nishita", "tourism": "hotel"}}, {"type": "node", "id": 1803055368, "lat": 21.4277282, "lon": 91.9780542, "tags": {"name": "Diamond Palace Guest House", "name:en": "Diamond Palace Guest House", "tourism": "hotel"}}, {"type": "node", "id": 1803061674, "lat": 21.4275234, "lon": 91.9781132, "tags": {"name": "Diamond Palace Guest House + Saint Martin Bus", "name:en": "Diamond Palace Guest House + Saint Martin Bus", "tourism": "hotel"}}, {"type": "node", "id": 1803124487, "lat": 21.4268844, "lon": 91.9780031, "tags": {"name": "Galaxy Resort + Hanif Bus Counter", "name:en": "Galaxy Resort + Hanif Bus Counter", "tourism": "hotel"}}, {"type": "node", "id": 1803245353, "lat": 21.4199132, "lon": 91.9819108, "tags": {"name": "Uni Resort", "name:en": "Uni Resort", "tourism": "hotel"}}, {"type": "node", "id": 1803255511, "lat": 21.4192713, "lon": 91.9822944, "tags": {"name": "Resort Islandia", "name:en": "Resort Islandia", "tourism": "hotel"}}, {"type": "node", "id": 1828439691, "lat": 21.8087608, "lon": 92.5174494, "tags": {"name": "Serkor Para", "tourism": "camp_site"}}, {"type": "node", "id": 1841400854, "lat": 22.6589698, "lon": 92.1720412, "tags": {"name": "Hotel Dignity", "tourism": "hotel"}}, {"type": "node", "id": 1841491746, "lat": 22.6607985, "lon": 92.1678919, "tags": {"name": "Hote Mehedi", "tourism": "hotel"}}, {"type": "node", "id": 1841616367, "lat": 22.6285981, "lon": 92.189854, "tags": {"name": "Porjoton Holyday Complex", "tourism": "picnic_site"}}, {"type": "node", "id": 1848547532, "lat": 22.3626743, "lon": 91.8206598, "tags": {"name": "Hotel Lords Inn", "tourism": "hotel"}}, {"type": "node", "id": 1848552296, "lat": 22.3593632, "lon": 91.8214833, "tags": {"leisure": "garden", "name": "Flower Shop"}}, {"type": "node", "id": 1848581984, "lat": 22.3575647, "lon": 91.821692, "tags": {"name": "Grand Park Hotel", "tourism": "hotel"}}, {"type": "node", "id": 1848616384, "lat": 22.3596679, "lon": 91.8231342, "tags": {"name": "Well Park Residence", "tourism": "hotel"}}, {"type": "node", "id": 1936360870, "lat": 23.7411463, "lon": 90.4185254, "tags": {"internet_access": "wlan", "name": "হোটেল আশরাফি", "name:bn": "হোটেল আশরাফি", "name:en": "Hotel Asrafi", "tourism": "hotel", "wheelchair": "limited"}}, {"type": "node", "id": 1937564985, "lat": 23.7439755, "lon": 90.4137589, "tags": {"name": "Manhattan Hotel", "tourism": "hotel"}}, {"type": "node", "id": 1950914184, "lat": 25.7505117, "lon": 89.2544533, "tags": {"historic": "monument", "name": "পায়রা চত্বর", "name:en": "Paira Chattar"}}, {"type": "node", "id": 1962575166, "lat": 22.3377627, "lon": 91.8379406, "tags": {"landuse": "reservoir", "leisure": "water_park", "name": "Laldighi"}}, {"type": "node", "id": 1962591778, "lat": 22.3437313, "lon": 91.8336538, "tags": {"access": "permissive", "description": "Cultural and historical place in Chittagong.", "historic": "monument", "material": "brick", "name": "Cheragi Pahar", "wikidata": "Q15209425", "wikimedia_commons": "Category:Cheragi_Pahar", "wikipedia": "en:Cheragi Pahar"}}, {"type": "node", "id": 1963022033, "lat": 22.3362923, "lon": 91.8250394, "tags": {"internet_access": "wlan", "name": "Hotel Golden Inn", "name:en": "Hotel Golden Inn", "tourism": "hotel"}}, {"type": "node", "id": 1963040026, "lat": 22.3665263, "lon": 91.823766, "tags": {"leisure": "garden", "name": "Biplob Udyan (Victory Garden)"}}, {"type": "node", "id": 1963057752, "lat": 22.3445288, "lon": 91.8248677, "tags": {"name": "Naval Museun", "tourism": "museum"}}, {"type": "node", "id": 1963059684, "lat": 22.3470295, "lon": 91.8175507, "tags": {"leisure": "garden", "name": "Jeelapi pahar "}}, {"type": "node", "id": 1969794368, "lat": 24.3903522, "lon": 89.8128308, "tags": {"name": "Jamuna Resort", "tourism": "hotel"}}, {"type": "node", "id": 1986833240, "lat": 24.3708954, "lon": 88.6246598, "tags": {"name": "Deshratna Sheikh Hasina Hall", "tourism": "hostel"}}, {"type": "node", "id": 2070359696, "lat": 21.6838485, "lon": 92.071394, "tags": {"check_date": "2024-04-07", "name": "Malumghat Guest House", "tourism": "guest_house"}}, {"type": "node", "id": 2148093241, "lat": 24.366889, "lon": 88.6370297, "tags": {"addr:postcode": "6205", "historic": "monument", "name": "Shabash Bangladesh Monument", "name:bn": "সাবাশ বাংলাদেশ"}}, {"type": "node", "id": 2150778040, "lat": 24.3685715, "lon": 88.6398279, "tags": {"addr:city": "Binodpur", "historic": "monument", "name": "Rustom tea stall রুস্তম চায়ের দোকান", "shop": "tea"}}, {"type": "node", "id": 2178102724, "lat": 23.8141635, "lon": 90.3466219, "tags": {"attraction": "animal", "name": "Black Necked Stork Cage", "name:bn": "কালোগলা মানিকজোড় খাচা", "tourism": "attraction"}}, {"type": "node", "id": 2284326167, "lat": 22.4704226, "lon": 91.793003, "tags": {"name": "Chittagong University Club", "tourism": "guest_house"}}, {"type": "node", "id": 2299419552, "lat": 23.84621, "lon": 90.2576092, "tags": {"historic": "ruins", "name": "Rana Plaza (Collapsed)"}}, {"type": "node", "id": 2303458464, "lat": 24.929588, "lon": 89.946804, "tags": {"atm": "no", "description": "mobile 01713211494", "internet_access": "no", "name": "Hotel Star International", "phone": "0981-64568", "tourism": "hotel", "wheelchair": "no"}}, {"type": "node", "id": 2304968905, "lat": 25.133698, "lon": 89.797096, "tags": {"name": "26", "tourism": "viewpoint"}}, {"type": "node", "id": 2306302795, "lat": 23.7362321, "lon": 90.4135043, "tags": {"name": "victory", "tourism": "hotel"}}, {"type": "node", "id": 2311090680, "lat": 23.7890731, "lon": 90.4145865, "tags": {"addr:city": "Dhaka", "addr:housename": "#30", "addr:street": "Road 38", "name": "Green Goose Guest House", "tourism": "guest_house"}}, {"type": "node", "id": 2340431406, "lat": 23.7317156, "lon": 90.3964903, "tags": {"addr:city": "Dhaka", "addr:housename": "University of Dhaka", "addr:postcode": "1000", "addr:street": "Shahid Minar Rd", "historic": "memorial", "memorial": "statue", "name": "World War Memorial", "note": "Recreation Center for students and teachers of University of Dhaka. A good place for ganging out with friends", "wikidata": "Q7691195", "wikimedia_commons": "Category:Teacher-Student Centre, University of Dhaka", "wikipedia": "en:Teacher-Student Centre (TSC), University of Dhaka"}}, {"type": "node", "id": 2343339635, "lat": 23.797679, "lon": 90.4042359, "tags": {"name": "Royal Park Hotel", "name:ur": "رائل پارک ہوٹل", "tourism": "hotel"}}, {"type": "node", "id": 2345944023, "lat": 22.864742, "lon": 91.1016913, "tags": {"name": "Noakhali Circuit House", "tourism": "guest_house"}}, {"type": "node", "id": 2368363618, "lat": 23.895771, "lon": 89.1520862, "tags": {"historic": "memorial", "name": "লালন শাহ্‌ মাজার", "name:en": "Lalon Shah Mazar"}}, {"type": "node", "id": 2401402663, "lat": 22.470806, "lon": 91.7870315, "tags": {"access": "yes", "addr:flats": "শহীদ মিনার", "door": "opening", "entrance": "main", "fixme": "Please merge me into a nearby building", "historic": "monument", "name": "Central Shaheed Minar", "name:bn": "শহীদ মিনার", "source": "local knowledge", "wheelchair": "yes", "wikidata": "Q32012815"}}, {"type": "node", "id": 2424123168, "lat": 22.9416364, "lon": 90.8385771, "tags": {"name": "লক্ষ্মীপুর সার্কিট হাউস", "name:en": "Lakshmipur Circuit House", "tourism": "guest_house"}}, {"type": "node", "id": 2426583047, "lat": 23.6016539, "lon": 89.8311206, "tags": {"name": "Hotel Park Plaza", "tourism": "hotel"}}, {"type": "node", "id": 2426688911, "lat": 23.2048606, "lon": 90.3470888, "tags": {"name": "Shariatpur Circuit House", "tourism": "guest_house"}}, {"type": "node", "id": 2428070133, "lat": 23.2263802, "lon": 90.6584604, "tags": {"historic": "monument", "name": "অঙ্গীকার", "name:bn": "অঙ্গীকার", "name:en": "Ongikar"}}, {"type": "node", "id": 2428072330, "lat": 23.2344078, "lon": 90.6742433, "tags": {"name": "Chandpur Circuit House", "tourism": "guest_house"}}, {"type": "node", "id": 2432640084, "lat": 22.4601845, "lon": 91.9707019, "tags": {"historic": "monument", "name": "CUET Shaeed Minar"}}, {"type": "node", "id": 2445538056, "lat": 23.7226895, "lon": 90.4011506, "tags": {"historic": "monument", "name": "Nimtoli Tragedy"}}, {"type": "node", "id": 2469617390, "lat": 24.9019701, "lon": 91.868396, "tags": {"name": "Hotel Star Pacific", "tourism": "hotel"}}, {"type": "node", "id": 2477823292, "lat": 21.8130846, "lon": 90.1226475, "tags": {"name": "কুয়াকাটা সমুদ্র সৈকত", "name:en": "Kuakata Sea Beach", "natural": "beach"}}, {"type": "node", "id": 2496884597, "lat": 22.6609351, "lon": 89.7583993, "tags": {"amenity": "place_of_worship", "check_date": "2025-12-31", "name": "Khan Jahan Ali's Tomb", "name:bn": "খানজাহান আলী সমাধি", "name:en": "Khan Jahan Ali's Tomb", "religion": "muslim", "tourism": "attraction"}}, {"type": "node", "id": 2508513420, "lat": 25.6280983, "lon": 88.6406692, "tags": {"name": "Law College More", "name:en": "আইন কলেজ মোড়", "tourism": "attraction"}}, {"type": "node", "id": 2510476366, "lat": 24.815551, "lon": 89.3794408, "tags": {"historic": "monument", "name": "Bogura Shapla Square", "name:bn": "বগুড়া শাপলা চত্বর"}}, {"type": "node", "id": 2510510243, "lat": 24.8501673, "lon": 89.3724158, "tags": {"name": "Akboria Abasik", "tourism": "hotel", "website": "https://akboria.com/"}}, {"type": "node", "id": 2510801991, "lat": 24.8465248, "lon": 89.3589599, "tags": {"name": "বেগম রোকেয়া হল", "name:bn": "বেগম রোকেয়া হল", "name:en": "Begum Rokeya Hall", "tourism": "hostel"}}, {"type": "node", "id": 2512799437, "lat": 22.3544404, "lon": 91.837516, "tags": {"name": "Sher- e- Bangla AK Fazrul Hoque Male Hostel", "tourism": "hostel"}}, {"type": "node", "id": 2517042851, "lat": 23.1848725, "lon": 89.2091835, "tags": {"leisure": "park", "name": "city municipal park"}}, {"type": "node", "id": 2521473729, "lat": 23.8796858, "lon": 90.2706049, "tags": {"historic": "monument", "name": "Amar Ekushey", "name:bn": "অমর একুশে", "wikidata": "Q15725481", "wikimedia_commons": "Category:Amar Ekushey (monument)"}}, {"type": "node", "id": 2521558619, "lat": 23.8798203, "lon": 90.2682913, "tags": {"height": "71 Feet", "historic": "monument", "name": "Jahangirnagar University Shaheed Minar", "source": "Bing"}}, {"type": "node", "id": 2571039675, "lat": 22.3575639, "lon": 91.8394134, "tags": {"name": "Hotel Al-Helal", "tourism": "hotel"}}, {"type": "node", "id": 2571120813, "lat": 22.368265, "lon": 91.844888, "tags": {"name": "Hotel Zaman", "tourism": "hotel"}}, {"type": "node", "id": 2571121656, "lat": 22.3662864, "lon": 91.8426611, "tags": {"name": "Arkan Hotel & Restaurant", "tourism": "hotel"}}, {"type": "node", "id": 2571157092, "lat": 22.3586208, "lon": 91.8393572, "tags": {"name": "Hotel AL-Akaba", "tourism": "hotel"}}, {"type": "node", "id": 2571160313, "lat": 22.3588631, "lon": 91.8396119, "tags": {"name": "Hotel Star Park", "tourism": "hotel"}}, {"type": "node", "id": 2571160788, "lat": 22.3582103, "lon": 91.8388259, "tags": {"name": "Hotel Four Star", "tourism": "hotel"}}, {"type": "node", "id": 2571162374, "lat": 22.3583853, "lon": 91.837727, "tags": {"name": "Hotel Zaman", "tourism": "hotel"}}, {"type": "node", "id": 2571166022, "lat": 22.3573005, "lon": 91.8378607, "tags": {"name": "Hotel Chowk Maloncho", "tourism": "hotel"}}, {"type": "node", "id": 2571173854, "lat": 22.3559679, "lon": 91.8388795, "tags": {"name": "Matri Chaya Mohila Hostel", "tourism": "hostel"}}, {"type": "node", "id": 2571781474, "lat": 22.3663933, "lon": 91.8114282, "tags": {"name": "কাজী নজরুল ইসলাম হল", "name:en": "Kazi Nazrul Islam Hall", "tourism": "hostel"}}, {"type": "node", "id": 2573097988, "lat": 23.4613326, "lon": 91.1814222, "tags": {"addr:city": "Comilla", "addr:postcode": "3500", "addr:street": "Town Hall Road", "historic": "monument", "name": "Comilla Central Shaheed Minar", "name:bn": "কুমিল্লা শহীদ মিনাার"}}, {"type": "node", "id": 2577008305, "lat": 22.3686419, "lon": 91.844488, "tags": {"name": "Al-madina Hotel;Hotel Tazz", "tourism": "hotel"}}, {"type": "node", "id": 2577008306, "lat": 22.3686887, "lon": 91.8444444, "tags": {"name": "Hotel Tazz", "tourism": "hotel"}}, {"type": "node", "id": 2577018729, "lat": 22.3685013, "lon": 91.8431537, "tags": {"name": "City Guest House", "tourism": "hotel"}}, {"type": "node", "id": 2580831701, "lat": 22.3354881, "lon": 91.8300064, "tags": {"name": "Hotel Mishka", "name:en": "Hotel Mishka", "name:ur": "ہوٹل مشکا", "tourism": "hotel"}}, {"type": "node", "id": 2583432786, "lat": 22.3474959, "lon": 91.8198076, "tags": {"email": "avehtl_suites@ispahanibd.com", "name": "The Avenue Hotel and Suites", "phone": "+88-031 627986", "tourism": "hotel", "website": "http://www.avenuehotel-suites.com/"}}, {"type": "node", "id": 2585448483, "lat": 23.3835995, "lon": 91.2763278, "tags": {"leisure": "park", "name": "Doctor's Khil"}}, {"type": "node", "id": 2585750323, "lat": 22.343113, "lon": 91.8336791, "tags": {"name": "Hotel Lusai", "tourism": "hotel"}}, {"type": "node", "id": 2613320630, "lat": 24.4197108, "lon": 88.9916251, "tags": {"historic": "memorial", "name": "Natore Royal Palace"}}, {"type": "node", "id": 2622271415, "lat": 25.2448604, "lon": 90.0434562, "tags": {"name": "Gajni Obakask Kendro", "tourism": "attraction"}}, {"type": "node", "id": 2633858872, "lat": 21.6588597, "lon": 92.471698, "tags": {"ele": "871", "name": "ক্রিস তং", "name:bn": "ক্রিস তং", "name:en": "Kris Taung", "natural": "peak"}}, {"type": "node", "id": 2633861347, "lat": 21.8756613, "lon": 92.5273628, "tags": {"alt_name": "লখু তং", "ele": "907", "name": "লাখুডং", "name:en": "Lakhudaung", "natural": "peak"}}, {"type": "node", "id": 2633861348, "lat": 21.821586, "lon": 92.5364603, "tags": {"ele": "839", "name": "তাজিং ডং", "name:bn": "তাজিং ডং", "name:en": "Tajing Daung", "natural": "peak"}}, {"type": "node", "id": 2633861349, "lat": 21.97464, "lon": 92.6072129, "tags": {"name": "Teen Matha", "name:de": "Teen Matha", "name:fr": "Teen Matha", "natural": "peak"}}, {"type": "node", "id": 2633861530, "lat": 21.9012491, "lon": 92.5240676, "tags": {"alt_name": "তাংগিওডং", "ele": "919", "name": "কপিতাল", "name:bn": "কপিতাল", "name:en": "Capital", "natural": "peak"}}, {"type": "node", "id": 2633862064, "lat": 21.7860497, "lon": 92.6095448, "tags": {"alt_name": "ত্ল্যাংময়", "alt_name:en": "Mowdok Mual;Clan Moy", "ele": "1052", "name": "সাকা হাফং", "name:bn": "সাকা হাফং", "name:en": "Saka Haphong", "natural": "peak", "wikidata": "Q2696459"}}, {"type": "node", "id": 2633868683, "lat": 21.8203053, "lon": 92.3795874, "tags": {"ele": "582", "name": "চিম্বুক", "name:bn": "চিম্বুক", "name:en": "Chimbuk", "natural": "peak"}}, {"type": "node", "id": 2633868686, "lat": 22.04208, "lon": 92.593389, "tags": {"name": "Rang Tlang", "natural": "peak"}}, {"type": "node", "id": 2638186093, "lat": 22.1898093, "lon": 92.2147878, "tags": {"name": "Hotel Hill View", "tourism": "hotel"}}, {"type": "node", "id": 2684717545, "lat": 22.5959391, "lon": 90.7472836, "tags": {"addr:city": "Daulatkhan", "addr:housename": "Daulatkhan Dak Banglo", "addr:postcode": "8300", "addr:street": "College Road", "name": "Daulatkhan Dak Banglo", "tourism": "guest_house"}}, {"type": "node", "id": 2799231606, "lat": 24.257426, "lon": 89.921691, "tags": {"name": "WAPDA Rest House", "tourism": "guest_house"}}, {"type": "node", "id": 2805665824, "lat": 23.4858069, "lon": 89.4091113, "tags": {"name": "Circuit House", "tourism": "guest_house"}}, {"type": "node", "id": 2808747716, "lat": 23.1800395, "lon": 89.5038553, "tags": {"name": "Narail Circuit House", "tourism": "guest_house"}}, {"type": "node", "id": 2817577016, "lat": 24.7622618, "lon": 90.3941794, "tags": {"name": "AMC Girls Hostel", "tourism": "hostel"}}, {"type": "node", "id": 2817580073, "lat": 24.7675266, "lon": 90.3949837, "tags": {"name": "SP Bungalow", "tourism": "guest_house"}}, {"type": "node", "id": 2817580434, "lat": 24.767442, "lon": 90.3996435, "tags": {"name": "সার্কিট হাউজ", "name:bn": "সার্কিট হাউজ", "name:en": "Circuit House", "tourism": "guest_house"}}, {"type": "node", "id": 2817581504, "lat": 24.76822, "lon": 90.398368, "tags": {"name": "DC Bungalow", "tourism": "guest_house"}}, {"type": "node", "id": 2818565638, "lat": 24.7418746, "lon": 90.4120547, "tags": {"name": "MMCH Ladies Hostel", "tourism": "hostel"}}, {"type": "node", "id": 2818605213, "lat": 24.7556948, "lon": 90.4100316, "tags": {"name": "Hotel Amir International", "tourism": "hotel"}}, {"type": "node", "id": 2820292775, "lat": 24.7186476, "lon": 90.4441358, "tags": {"name": "Bachelor's Quarter", "tourism": "hostel"}}, {"type": "node", "id": 2820293306, "lat": 24.717301, "lon": 90.4349984, "tags": {"name": "Fazlul Hoque Hall", "tourism": "hostel"}}, {"type": "node", "id": 2820315245, "lat": 24.7333371, "lon": 90.4322447, "tags": {"name": "BAU Guest House", "tourism": "guest_house"}}, {"type": "node", "id": 2830470142, "lat": 22.190914, "lon": 92.2189777, "tags": {"name": "Circuit House", "tourism": "guest_house"}}, {"type": "node", "id": 2830476489, "lat": 22.1927345, "lon": 92.2164631, "tags": {"name": "Hotel Plaza", "tourism": "hotel"}}, {"type": "node", "id": 2830478665, "lat": 22.1641251, "lon": 92.2210706, "tags": {"name": "Osing Tong Resort", "tourism": "hotel"}}, {"type": "node", "id": 2830479892, "lat": 22.1508086, "lon": 92.2165935, "tags": {"name": "Shoylo Propat", "natural": "waterfall"}}, {"type": "node", "id": 2831108389, "lat": 21.6733774, "lon": 92.0967051, "tags": {"leisure": "park", "name": "Dulhazara Safari Park"}}, {"type": "node", "id": 2831135876, "lat": 21.2342137, "lon": 92.0493834, "tags": {"name": "Mission La Bella Resort", "tourism": "hotel"}}, {"type": "node", "id": 2831149883, "lat": 21.2973179, "lon": 92.0513344, "tags": {"check_date": "2024-04-12", "name": "Mermaid Eco Resort", "tourism": "guest_house"}}, {"type": "node", "id": 2875776854, "lat": 22.6241163, "lon": 90.0595463, "tags": {"name": "ডাকবাংলা", "name:en": "Dakbangla", "tourism": "guest_house"}}, {"type": "node", "id": 2875776861, "lat": 22.6217821, "lon": 90.0599226, "tags": {"historic": "monument", "name": "শহীদ মিনার", "name:en": "Saheed Minar"}}, {"type": "node", "id": 2881474984, "lat": 22.5792769, "lon": 89.9728219, "tags": {"name": "হোটেল অবকাশ", "name:en": "Hotel Obokas", "smoking": "yes", "tourism": "hotel"}}, {"type": "node", "id": 2887285207, "lat": 23.6389281, "lon": 90.9309417, "tags": {"access": "yes", "historic": "monument", "inscription": "Allahu Square", "name": "Allahu Square"}}, {"type": "node", "id": 2897130809, "lat": 24.0834952, "lon": 90.170625, "tags": {"name": "Fazlul Huq House", "tourism": "hostel"}}, {"type": "node", "id": 2946115784, "lat": 24.7551913, "lon": 90.4107781, "tags": {"name": "Khan International Hotel", "tourism": "hotel"}}, {"type": "node", "id": 2971242563, "lat": 22.8682168, "lon": 89.5285907, "tags": {"historic": "monument", "name": "B.L college shidminar"}}, {"type": "node", "id": 2991899934, "lat": 23.7243573, "lon": 90.4167287, "tags": {"leisure": "park", "name": "বঙ্গভবন বাগান", "name:bn": "বঙ্গভবন বাগান", "name:en": "Bangabhaban Garden"}}, {"type": "node", "id": 2992690009, "lat": 23.7337987, "lon": 90.3924122, "tags": {"historic": "memorial", "memorial": "statue", "name": "অপরাজেয় বাংলা", "name:bn": "অপরাজেয় বাংলা", "name:en": "Aparajeyo Bangla", "wikidata": "Q4779121", "wikimedia_commons": "Category:Aparajeyo Bangla", "wikipedia": "en:Aparajeyo Bangla"}}, {"type": "node", "id": 2992868223, "lat": 23.7361437, "lon": 90.3913006, "tags": {"historic": "memorial", "memorial": "plaque", "name": "Statue of Master Da Surya Sen"}}, {"type": "node", "id": 2994837858, "lat": 23.79617, "lon": 90.4262161, "tags": {"name": "Contemporary Heights Hotel", "tourism": "hotel"}}, {"type": "node", "id": 3003499743, "lat": 23.7579698, "lon": 90.3903084, "tags": {"name": "Hotel Givenci", "tourism": "hotel"}}, {"type": "node", "id": 3005877495, "lat": 22.3362307, "lon": 91.8249678, "tags": {"name": "Hotel Silver Inn", "name:en": "Hotel Silver Inn", "tourism": "hotel"}}, {"type": "node", "id": 3006309126, "lat": 23.7322546, "lon": 90.395721, "tags": {"artist_name": "Professor Hamiduzzaman", "artwork_type": "sculpture", "material": "steel", "name": "Bird of Peace", "tourism": "artwork"}}, {"type": "node", "id": 3006466329, "lat": 23.7328982, "lon": 90.3953878, "tags": {"historic": "memorial", "memorial": "sculpture", "name": "ড. মিলন স্মৃতি", "name:bn": "ড. মিলন স্মৃতি", "name:en": "Dr. Milon Smirti"}}, {"type": "node", "id": 3013587554, "lat": 23.7304595, "lon": 90.4094933, "tags": {"name": "Olyampia Palace", "tourism": "hotel"}}, {"type": "node", "id": 3014541551, "lat": 23.771328, "lon": 90.375476, "tags": {"historic": "memorial", "name": "শহীদ মিনার", "name:bn": "শহীদ মিনার", "name:en": "Shahid Minar"}}, {"type": "node", "id": 3056210996, "lat": 22.6317378, "lon": 90.0596789, "tags": {"name": "সরকারী পাইলট হাউজ", "name:en": "Govt. Pilot House", "tourism": "guest_house"}}, {"type": "node", "id": 3103415139, "lat": 26.0378475, "lon": 89.3120079, "tags": {"name": "বিজিবি ক্যাম্প", "name:en": "BGB Camp", "tourism": "camp_site"}}, {"type": "node", "id": 3134553131, "lat": 22.3547635, "lon": 91.8269423, "tags": {"addr:city": "Chittagong", "addr:street": "Road # 01, Plot # 02, O.R. Nizam Road", "name": "Well Park Hotel", "phone": "+88 031 - 2557035", "tourism": "hotel", "website": "http://www.wellparkbd.com/contact.php", "wheelchair": "yes"}}, {"type": "node", "id": 3170512718, "lat": 22.4710184, "lon": 91.7933166, "tags": {"historic": "monument", "name": "Zero Point"}}, {"type": "node", "id": 3178419169, "lat": 25.8129519, "lon": 89.643388, "tags": {"leisure": "park", "name": "Shapla Chattar"}}, {"type": "node", "id": 3191363719, "lat": 24.3386385, "lon": 89.9251001, "tags": {"name": "Hotel Kucul", "tourism": "hotel"}}, {"type": "node", "id": 3207905276, "lat": 22.8031465, "lon": 89.5313151, "tags": {"addr:city": "Khulna", "building:use": "residential", "name": "New women hostel", "residential": "hostel", "tourism": "hostel"}}, {"type": "node", "id": 3207905307, "lat": 22.8031791, "lon": 89.5297952, "tags": {"historic": "monument", "name": "Monument"}}, {"type": "node", "id": 3210582148, "lat": 22.4704368, "lon": 91.7844642, "tags": {"fee": "no", "museum": "local", "name": "Chittagong University Museam", "opening_hours": "Mo-Th, Su 09:00-15:00", "tourism": "museum", "website": "http://www.cum.org.bd/", "wikidata": "Q24206239"}}, {"type": "node", "id": 3211008131, "lat": 22.8045094, "lon": 89.5364834, "tags": {"leisure": "garden", "name": "flower garden"}}, {"type": "node", "id": 3211938142, "lat": 23.7974301, "lon": 90.4107008, "tags": {"addr:city": "Dhaka", "addr:street": "Road 50", "name": "Quality Inn", "tourism": "hotel", "website": "http://www.qualityinnbd.com/"}}, {"type": "node", "id": 3212513273, "lat": 22.4711583, "lon": 91.7845187, "tags": {"historic": "monument", "name": "Swadhinata Smrity Mural", "wikidata": "Q32003181"}}, {"type": "node", "id": 3296269829, "lat": 23.7386933, "lon": 90.3730208, "tags": {"leisure": "garden", "name": "MCT Bhuiyan Garden"}}, {"type": "node", "id": 3296833165, "lat": 23.7360423, "lon": 90.3701568, "tags": {"name": "Srehadhara Female Hostel", "tourism": "hostel"}}, {"type": "node", "id": 3302111654, "lat": 23.7389906, "lon": 90.3634208, "tags": {"amenity": "grave_yard", "historic": "memorial", "name": "private graveyard"}}, {"type": "node", "id": 3315843834, "lat": 23.7383763, "lon": 90.377697, "tags": {"internet_access": "yes", "name": "Hotel Ambala Inn", "tourism": "hotel"}}, {"type": "node", "id": 3315974497, "lat": 23.73273, "lon": 90.3819696, "tags": {"addr:street": "New Market Road", "name": "Shahnewaj Hall", "operator": "Dhaka University", "tourism": "hostel"}}, {"type": "node", "id": 3318102781, "lat": 22.809425, "lon": 89.5625462, "tags": {"historic": "monument", "name": "Shohid Minar"}}, {"type": "node", "id": 3329083998, "lat": 23.7317299, "lon": 90.3706418, "tags": {"addr:street": "Moneswar Road", "name": "Leather Technology Student Hostel", "note": "Hazaribag", "source": "HOTOSM, MSF and Bing", "tourism": "hostel"}}, {"type": "node", "id": 3332637600, "lat": 23.735994, "lon": 90.3641289, "tags": {"name": "Gojmahal", "tourism": "attraction"}}, {"type": "node", "id": 3352983414, "lat": 22.8176046, "lon": 89.564187, "tags": {"name": "Hotel Boisakhi", "tourism": "hotel"}}, {"type": "node", "id": 3376171399, "lat": 23.7806603, "lon": 90.3762843, "tags": {"building": "yes", "historic": "monument", "name": "Dhaka Mohila Polytechnic Institute Shahid Minar"}}, {"type": "node", "id": 3391977997, "lat": 23.4626447, "lon": 90.3326701, "tags": {"name": "Padma Resort", "note": "Louhajong, Munshigonj", "tourism": "picnic_site"}}, {"type": "node", "id": 3398135911, "lat": 22.3475711, "lon": 91.823004, "tags": {"addr:street": "Saifuddin Khaled Road", "internet_access": "yes", "name": "Radisson Blue", "name:en": "Radisson Blu Chittagong Bay View", "phone": "+88031619800", "stars": "5", "tourism": "hotel", "website": "https://www.radissonblu.com/hotel-chittagong"}}, {"type": "node", "id": 3431912113, "lat": 23.8217673, "lon": 90.2579546, "tags": {"leisure": "park", "name": "Minipark"}}, {"type": "node", "id": 3432736963, "lat": 25.7693193, "lon": 89.2344858, "tags": {"addr:city": "Rangpur", "addr:street": "Burirhat Road", "leisure": "park", "name": "Shirin Park"}}, {"type": "node", "id": 3448107554, "lat": 23.7601588, "lon": 90.3843561, "tags": {"addr:city": "dhaka", "addr:street": "Gate No. 2 Road", "name": "my home female hostel", "tourism": "hostel"}}, {"type": "node", "id": 3448764853, "lat": 23.0102557, "lon": 91.3992992, "tags": {"addr:city": "Feni", "addr:postcode": "3900", "addr:street": "Trank Road", "historic": "monument", "name": "শহীদ মিনার", "name:en": "Shahid Minar"}}, {"type": "node", "id": 3493036293, "lat": 23.720477, "lon": 90.4114644, "tags": {"name": "ঢাকা হোটেল", "name:en": "Dhaka Hotel", "tourism": "hotel"}}, {"type": "node", "id": 3493036294, "lat": 23.7205034, "lon": 90.4113653, "tags": {"name": "নিউ ঢাকা হোটেল", "name:en": "New Dhaka Hotel", "smoking": "yes", "tourism": "hotel", "wheelchair": "no"}}, {"type": "node", "id": 3494315748, "lat": 22.8734136, "lon": 89.5232991, "tags": {"junction": "yes", "name": "মহাসিন মোড়", "tourism": "information"}}, {"type": "node", "id": 3500104483, "lat": 21.7999284, "lon": 90.1854187, "tags": {"name": "কুয়াকাটা সমুদ্র সৈকত", "name:en": "Kuakata Sea Beach", "tourism": "attraction"}}, {"type": "node", "id": 3534642367, "lat": 23.7351455, "lon": 90.3834236, "tags": {"addr:city": "Dhaka city", "addr:housenumber": "Dhaka College", "addr:postcode": "1205", "addr:street": "dhaka college campus path", "historic": "monument", "name": "ঢাকা কলেজ শহীদ মিনার", "name:en": "Dhaka College Shahid Minar"}}, {"type": "node", "id": 3557693730, "lat": 23.7498699, "lon": 90.3932375, "tags": {"amenity": "fountain", "name": "SAARC Fountain", "name:bn": "সার্ক ফোয়ারা", "name:en": "SAARC Fountain", "tourism": "attraction"}}, {"type": "node", "id": 3559113606, "lat": 24.7165898, "lon": 90.9579979, "tags": {"addr:city": "মদন", "addr:city:bn": "মদন", "addr:city:en": "Madan", "addr:postcode": "2490", "addr:subdistrict": "মদন", "addr:subdistrict:bn": "মদন", "addr:subdistrict:en": "Madan", "name": "জেলা পরিষদ ডাক বাংলো", "name:bn": "জেলা পরিষদ ডাক বাংলো", "name:en": "Zilla Parisad Dak Banglo", "tourism": "guest_house"}}, {"type": "node", "id": 3566506626, "lat": 22.9144852, "lon": 89.5036506, "tags": {"historic": "monument", "name": "Shiromoni Sohid Minar"}}, {"type": "node", "id": 3576990339, "lat": 22.898671, "lon": 89.5053911, "tags": {"leisure": "garden", "name": "Khanjahan Ali Hall garden"}}, {"type": "node", "id": 3580522116, "lat": 22.7065038, "lon": 90.3707372, "tags": {"name": "Sedona", "tourism": "hotel"}}, {"type": "node", "id": 3580525330, "lat": 22.7006491, "lon": 90.3698196, "tags": {"name": "Arena Hotel", "tourism": "hotel"}}, {"type": "node", "id": 3580527126, "lat": 23.8065333, "lon": 90.4180812, "tags": {"name": "La Villa", "tourism": "hotel"}}, {"type": "node", "id": 3588042989, "lat": 24.2983937, "lon": 89.080007, "tags": {"historic": "monument", "name": "Bonpara Bypass Chottor, Dhaka - Natore Hwy, Bonpara, Natore"}}, {"type": "node", "id": 3591966542, "lat": 26.0397663, "lon": 88.4473773, "tags": {"name": "ESDO Guest House", "tourism": "guest_house"}}, {"type": "node", "id": 3603322363, "lat": 23.1394597, "lon": 90.9615137, "tags": {"addr:city": "Dhaka", "addr:housenumber": "Kherihor,shahrsti,chandpur", "addr:postcode": "3622", "addr:street": "Shahrsti", "leisure": "park", "level": "100", "name": "বড় ভূঁইয়া বাড়ী", "name:en": "Boro Bhuiyan Bari"}}, {"type": "node", "id": 3605377387, "lat": 23.8364188, "lon": 90.4179539, "tags": {"addr:city": "Dhaka", "addr:housenumber": "79/A Commercial Area", "addr:postcode": "1229", "addr:street": "Airport Road", "brand": "Le Méridien", "brand:wikidata": "Q261077", "internet_access": "wlan", "name": "Le Meridien Dhaka", "operator": "Starwood Hotels", "phone": "+88028900089", "tourism": "hotel", "website": "https://www.marriott.com/reservation/rateListMenu.mi?gclid=EAIaIQobChMIhYyU_bKagQMVT_3aBR1LpwD6EAoYBiAAEgL3VPD_BwE&dclid=COS5koOzmoEDFeSiZgIdVTwLFw&cid=REF_GLB0002Y24_GLE00070C6_GLF000C1AE&defaultTab=dealsAndPackages", "wheelchair": "yes"}}, {"type": "node", "id": 3634354131, "lat": 23.8578755, "lon": 90.2611194, "tags": {"name": "YMCA Training Centre", "tourism": "guest_house"}}, {"type": "node", "id": 3647139343, "lat": 23.7311432, "lon": 90.3729868, "tags": {"name": "Ripon's House", "tourism": "apartment"}}, {"type": "node", "id": 3666317510, "lat": 22.6994871, "lon": 90.3703161, "tags": {"historic": "monument", "name": "বরিশাল কেন্দ্রীয় শহীদ মিনার", "name:en": "Barisal Central Shaheed Minar"}}, {"type": "node", "id": 3682858703, "lat": 22.3214243, "lon": 91.8114032, "tags": {"designation": "Three Star Business Hotel", "name": "Courtyard Marriott Chittagong", "tourism": "hotel"}}, {"type": "node", "id": 3682906985, "lat": 22.3264732, "lon": 91.8126359, "tags": {"name": "Hotel Saint Martin", "tourism": "hotel"}}, {"type": "node", "id": 3701676356, "lat": 25.1272407, "lon": 90.6792472, "tags": {"historic": "monument", "name": "Mahamudul Haskon Sohay"}}, {"type": "node", "id": 3701721799, "lat": 25.1276267, "lon": 90.6795114, "tags": {"name": "Reguae Worker Rest House", "tourism": "guest_house"}}, {"type": "node", "id": 3707717958, "lat": 24.9002124, "lon": 91.8655043, "tags": {"name": "Holy Gate", "tourism": "hotel"}}, {"type": "node", "id": 3711618746, "lat": 23.8744807, "lon": 90.2678259, "tags": {"addr:city": "savar, Dhaka", "addr:postcode": "1342", "addr:street": "Jahangirnagar University", "leisure": "park", "name": "Botanical Garden", "note": "It's also known as a Butterfly cultivation area..", "wheelchair": "limited"}}, {"type": "node", "id": 3711623000, "lat": 23.802536, "lon": 90.3786704, "tags": {"addr:city": "DHAKA", "addr:postcode": "1216", "addr:street": "Main Road - 13", "name": "Tripti Niloy", "operator:type": "private", "smoking": "yes", "tourism": "hotel"}}, {"type": "node", "id": 3712082375, "lat": 22.4655376, "lon": 90.3776091, "tags": {"leisure": "park", "name": "Play Ground"}}, {"type": "node", "id": 3714767169, "lat": 23.8715763, "lon": 90.387321, "tags": {"addr:postcode": "1230", "leisure": "park", "name": "Ladies Park"}}, {"type": "node", "id": 3715197753, "lat": 24.898765, "lon": 91.8578045, "tags": {"historic": "memorial", "name": "Modhu Shohid Mazar"}}, {"type": "node", "id": 3715223153, "lat": 24.9020922, "lon": 91.869326, "tags": {"name": "Hotel Holy Gate", "tourism": "hotel"}}, {"type": "node", "id": 3716906186, "lat": 23.8092644, "lon": 90.3730367, "tags": {"historic": "memorial", "memorial": "obelisk", "name": "Shaheed Minar"}}, {"type": "node", "id": 3720252200, "lat": 24.8996882, "lon": 91.8677411, "tags": {"name": "Aliya Madrasah Hostel", "tourism": "hostel"}}, {"type": "node", "id": 3721154031, "lat": 23.709032, "lon": 90.4096621, "tags": {"name": "Zoology Museum", "operator": "Department of Zoology, Jagannath University", "tourism": "museum"}}, {"type": "node", "id": 3731348565, "lat": 23.8810978, "lon": 90.2677759, "tags": {"historic": "memorial", "name": "Kobir Soroni", "survey:date": "2024-06-05"}}, {"type": "node", "id": 3731374677, "lat": 24.3744301, "lon": 88.6041108, "tags": {"access": "yes", "ele": "-2", "historic": "monument", "name": "Kamruzzaman Chottor"}}, {"type": "node", "id": 3733265505, "lat": 22.7048352, "lon": 90.3725008, "tags": {"name": "হোটেল তুহিন", "name:en": "Hotel Tuhin", "tourism": "hotel"}}, {"type": "node", "id": 3733454728, "lat": 22.8991543, "lon": 89.5023526, "tags": {"historic": "monument", "name": "Durbar Bangla"}}, {"type": "node", "id": 3738569970, "lat": 22.5795252, "lon": 89.96712, "tags": {"historic": "monument", "name": "শহীদ মিনার", "name:en": "Saheed Minar"}}, {"type": "node", "id": 3744951148, "lat": 23.6968257, "lon": 90.4257251, "tags": {"historic": "monument", "name": "শহীদ মিনার", "name:en": "Shaheed Minar"}}, {"type": "node", "id": 3745280225, "lat": 23.7348373, "lon": 90.3810508, "tags": {"addr:city": "Dhaka city", "addr:postcode": "1205", "addr:street": "dhaka college campus path", "level": "2", "material": "brick", "name": "EastHall", "tourism": "hostel"}}, {"type": "node", "id": 3748745250, "lat": 22.3955721, "lon": 91.808913, "tags": {"name": "Chittagong Cantonment Museum", "tourism": "museum"}}, {"type": "node", "id": 3753036142, "lat": 22.8103633, "lon": 89.5610914, "tags": {"addr:city": "Khulna", "addr:street": "Sat rastar Mor", "name": "Titan international", "operator": "Private", "tourism": "hotel"}}, {"type": "node", "id": 3753240193, "lat": 23.7966618, "lon": 90.4107728, "tags": {"addr:city": "Dhaka", "addr:housenumber": "House No. 5", "addr:postcode": "1212", "addr:street": "Road 54A", "name": "Marriott Guest House", "name:en": "Marriott Guest House", "phone": "+880-2-8827569", "tourism": "guest_house"}}, {"type": "node", "id": 3765158226, "lat": 23.7910589, "lon": 90.4119415, "tags": {"addr:city": "Dhaka", "addr:housenumber": "15", "addr:postcode": "1212", "addr:street": "Road 42", "internet_access": "wlan", "internet_access:fee": "no", "name": "Hotel Lake Breeze", "name:bn": "হোটেল লেক ব্রীজ", "tourism": "hotel", "website": "https://hotel-lake-breeze.dhaka-hotel.com/en/"}}, {"type": "node", "id": 3784880185, "lat": 23.4894889, "lon": 90.9944321, "tags": {"beds": "6", "internet_access": "no", "name": "Rest House", "operator": "Comilla PBS-1", "rooms": "3", "tourism": "guest_house"}}, {"type": "node", "id": 3797249214, "lat": 23.7344088, "lon": 90.4081061, "tags": {"name": "Chittagong Hotel", "tourism": "hotel"}}, {"type": "node", "id": 3797291075, "lat": 23.7378995, "lon": 90.4082354, "tags": {"name": "Hotel Razmoni Isha Kha", "tourism": "hotel"}}, {"type": "node", "id": 3815639171, "lat": 24.3665767, "lon": 88.6185557, "tags": {"name": "Jomuna Park", "tourism": "theme_park"}}, {"type": "node", "id": 3830908880, "lat": 23.8725313, "lon": 90.4037371, "tags": {"name": "Hotel Milina", "tourism": "hotel"}}, {"type": "node", "id": 3838505001, "lat": 23.8592733, "lon": 90.4004827, "tags": {"name": "Richmont hotel", "tourism": "hotel"}}, {"type": "node", "id": 3891255724, "lat": 23.556952, "lon": 90.5344018, "tags": {"name": "PTI Hostel (Female)", "operator": "PTI", "tourism": "hostel"}}, {"type": "node", "id": 3891255725, "lat": 23.5576008, "lon": 90.5334197, "tags": {"name": "PTI Hostel (Female)", "operator": "PTI", "tourism": "hostel"}}, {"type": "node", "id": 3891255726, "lat": 23.5566202, "lon": 90.5342875, "tags": {"name": "PTI Hostel (Male)", "operator": "PTI", "tourism": "hostel"}}, {"type": "node", "id": 3915889998, "lat": 23.7835326, "lon": 90.3427366, "tags": {"name": "Hotel Khan", "tourism": "hotel"}}, {"type": "node", "id": 3915889999, "lat": 23.7836729, "lon": 90.3440188, "tags": {"name": "Hotel Mohammadia", "tourism": "hotel"}}, {"type": "node", "id": 3915953446, "lat": 23.7833293, "lon": 90.3396213, "tags": {"name": "Hotel Arif", "tourism": "hotel"}}, {"type": "node", "id": 3919375216, "lat": 23.785527, "lon": 90.3325405, "tags": {"name": "Hotel Nidra", "tourism": "hotel"}}, {"type": "node", "id": 3922170372, "lat": 23.7932254, "lon": 90.2962342, "tags": {"name": "Jamuna Natural Park", "tourism": "theme_park"}}, {"type": "node", "id": 3941920833, "lat": 25.6284682, "lon": 88.6304663, "tags": {"historic": "memorial", "memorial": "plaque", "name": "Rudra Chattar"}}, {"type": "node", "id": 3955339113, "lat": 23.4165518, "lon": 91.1342718, "tags": {"name": "Bangabandhu Hall", "operator": "Comilla University", "tourism": "hostel"}}, {"type": "node", "id": 3955339114, "lat": 23.4171773, "lon": 91.1373912, "tags": {"name": "Begum Fouzunnessa Chowdhurani Hall", "operator": "Comilla University", "tourism": "hostel"}}, {"type": "node", "id": 3955339115, "lat": 23.4229928, "lon": 91.1324911, "tags": {"leisure": "water_park", "name": "Blue Water Park"}}, {"type": "node", "id": 3955339121, "lat": 23.4220077, "lon": 91.1334719, "tags": {"description": "Bangla Food, Picnic Spot, Meeting, Seminar etc.", "email": "kashbon2014@gmail.com", "name": "Kashbon Resort", "name:bn": "কাশবন রিসোর্ট", "operator": "Hazi Md Abul Kashem", "phone": "+8801715707284", "tourism": "picnic_site"}}, {"type": "node", "id": 3955339122, "lat": 23.4167383, "lon": 91.1353924, "tags": {"name": "Kazi Nazrul Islam Hall", "operator": "Comilla University", "tourism": "hostel"}}, {"type": "node", "id": 3955339124, "lat": 23.423594, "lon": 91.1371979, "tags": {"name": "ময়নামতি জাদুঘর", "name:en": "Mainamati Museum", "tourism": "museum", "wikidata": "Q118459560", "wikimedia_commons": "Category:Mainamati Museum"}}, {"type": "node", "id": 3959508312, "lat": 20.6171843, "lon": 92.3253122, "tags": {"name": "গলাচিপা", "name:bn": "গলাচিপা", "name:en": "Golacipa", "tourism": "viewpoint"}}, {"type": "node", "id": 3959538357, "lat": 20.6048458, "lon": 92.3266649, "tags": {"name": "শিলবনিয়া সমুদ্র সৈকত", "name:bn": "শিলবনিয়া সমুদ্র সৈকত", "name:en": "Shilbonia Beach", "natural": "beach"}}, {"type": "node", "id": 4068042717, "lat": 23.6907819, "lon": 90.498581, "tags": {"addr:city": "Narayanganj", "addr:postcode": "1430", "leisure": "water_park", "name": "Waj Uddin er Danga", "operator": "Waj Uddin"}}, {"type": "node", "id": 4070628499, "lat": 23.7551701, "lon": 90.405505, "tags": {"name": "Bismillah hotel", "tourism": "hotel"}}, {"type": "node", "id": 4072754546, "lat": 23.7600845, "lon": 90.4108379, "tags": {"name": "Allahar Dan Hotel", "tourism": "hotel"}}, {"type": "node", "id": 4077593029, "lat": 23.7502807, "lon": 90.4090167, "tags": {"name": "The Dormitory", "tourism": "hostel"}}, {"type": "node", "id": 4152543292, "lat": 25.8008519, "lon": 89.6381226, "tags": {"name": "BGB camp", "tourism": "camp_site"}}, {"type": "node", "id": 4160227789, "lat": 25.6422313, "lon": 88.6462899, "tags": {"historic": "castle", "name": "aristocrats"}}, {"type": "node", "id": 4164442490, "lat": 23.7597784, "lon": 89.9209695, "tags": {"name": "BADHAN's HOME", "tourism": "guest_house"}}, {"type": "node", "id": 4164445989, "lat": 23.7597863, "lon": 89.9209201, "tags": {"internet_access": "wlan", "name": "BADHAN 's HOME ", "opening_hours": "24/7", "tourism": "guest_house"}}, {"type": "node", "id": 4210855686, "lat": 25.7404487, "lon": 89.2544099, "tags": {"historic": "monument", "name": "Shapla Chattar", "name:bn": "শাপলা চত্বর"}}, {"type": "node", "id": 4254268990, "lat": 23.7429615, "lon": 90.3638024, "tags": {"name": "Emran-Habib", "tourism": "viewpoint"}}, {"type": "node", "id": 4272331791, "lat": 23.7215783, "lon": 90.4204466, "tags": {"addr:housenumber": "1", "addr:postcode": "1203", "addr:street": "Ram Krishna Mission Rd", "name": "Ittefaq Circle", "tourism": "attraction"}}, {"type": "node", "id": 4277568990, "lat": 23.8147238, "lon": 90.3718215, "tags": {"addr:postcode": "1216", "email": "shimanto_crazy@yahoo.com", "internet_access": "wlan", "name": "Shimanto's House", "opening_hours": "24/7", "phone": "+8801612050070", "tourism": "guest_house"}}, {"type": "node", "id": 4287106094, "lat": 23.9291939, "lon": 90.2894833, "tags": {"name": "Y a ripon", "tourism": "guest_house"}}, {"type": "node", "id": 4315763596, "lat": 25.6319578, "lon": 88.65811, "tags": {"name": "মাতাসাগর মোড়", "tourism": "viewpoint"}}, {"type": "node", "id": 4316680931, "lat": 23.1073016, "lon": 90.8593832, "tags": {"addr:city": "Ramgonj", "addr:postcode": "3720", "addr:street": "Haziganj-Ramganj Road", "historic": "monument", "name": "Ramgonj Cintiel Monument"}}, {"type": "node", "id": 4320942583, "lat": 23.7299566, "lon": 90.3863846, "tags": {"leisure": "garden", "name": "BNCC Garden"}}, {"type": "node", "id": 4320949115, "lat": 23.7289816, "lon": 90.3863038, "tags": {"addr:city": "Azimpur", "artwork_type": "sculpture", "name": "জয়িতা ৭১", "tourism": "artwork"}}, {"type": "node", "id": 4327344894, "lat": 23.7276687, "lon": 90.4105427, "tags": {"historic": "monument", "name": "Nur Hosen Chottor (Zero Point)"}}, {"type": "node", "id": 4327638233, "lat": 25.7413537, "lon": 89.2461349, "tags": {"historic": "monument", "name": "Mulatol Pakar matha"}}, {"type": "node", "id": 4334254937, "lat": 22.0401174, "lon": 90.9817207, "tags": {"contact:phone": "+8801861976346", "name": "Hotel Shahin", "operator": "Md. Ibrahim Company", "tourism": "hotel"}}, {"type": "node", "id": 4334282291, "lat": 23.5707588, "lon": 90.3890148, "tags": {"historic": "monument", "name": "Shahid Meenar"}}, {"type": "node", "id": 4336419989, "lat": 24.3756093, "lon": 90.3480169, "tags": {"name": "kamrul.islam", "tourism": "artwork"}}, {"type": "node", "id": 4346986265, "lat": 24.2619923, "lon": 89.9196103, "tags": {"addr:city": "Tangail", "addr:postcode": "1900", "leisure": "park", "name": "DC Lake"}}, {"type": "node", "id": 4347129927, "lat": 23.7329737, "lon": 90.3910371, "tags": {"historic": "monument", "name": "Memory Eternal"}}, {"type": "node", "id": 4347818887, "lat": 23.728525, "lon": 90.3924214, "tags": {"addr:street": "ফুলার রোড", "description": "Liberation War Monument", "historic": "memorial", "memorial": "bust", "name": "স্বাধীনতা সংগ্রাম", "name:ru": "Мемориал борьбы за свободу", "wheelchair": "no", "wikidata": "Q19745288", "wikimedia_commons": "Category:Swadhinata Sangram (sculpture)", "wikipedia": "bn:স্বাধীনতা সংগ্রাম (ভাস্কর্য)"}}, {"type": "node", "id": 4363453475, "lat": 23.741641, "lon": 90.3857745, "tags": {"historic": "monument", "name": "Shaheed Minar"}}, {"type": "node", "id": 4364245523, "lat": 23.7359939, "lon": 90.3818057, "tags": {"historic": "monument", "material": "brick", "name": "Shahid Minar"}}, {"type": "node", "id": 4364251018, "lat": 23.7360892, "lon": 90.3818965, "tags": {"leisure": "garden", "name": "Schhol garden"}}, {"type": "node", "id": 4364335987, "lat": 23.7221479, "lon": 90.3950673, "tags": {"leisure": "park", "level": "0", "name": "Omayer hossain chowdhury Gurden"}}, {"type": "node", "id": 4364342627, "lat": 23.7373924, "lon": 90.3831371, "tags": {"historic": "monument", "name": "Shaheed Minar"}}, {"type": "node", "id": 4364370947, "lat": 23.7221652, "lon": 90.3949923, "tags": {"historic": "monument", "name": "Shahid Minar", "wikidata": "Q2425991", "wikimedia_commons": "Category:Shaheed Minar", "wikipedia": "en:Shaheed Minar, Dhaka"}}, {"type": "node", "id": 4364373453, "lat": 24.840561, "lon": 89.3588586, "tags": {"name": "Joy Chattrabash", "tourism": "hostel"}}, {"type": "node", "id": 4368333206, "lat": 23.2143262, "lon": 89.7106753, "tags": {"addr:city": "Gopalgonj", "addr:street": "Bhatiapara Stand Road", "level": "2", "name": "Modhumoti", "tourism": "hotel"}}, {"type": "node", "id": 4369538150, "lat": 23.7406846, "lon": 91.0001374, "tags": {"name": "Ibrahim Sarkar", "tourism": "guest_house"}}, {"type": "node", "id": 4380156290, "lat": 21.8748813, "lon": 90.0726445, "tags": {"name": "আশার চর", "name:en": "Asar Char, Taltoli, Barguna", "tourism": "viewpoint"}}, {"type": "node", "id": 4380160492, "lat": 21.8969115, "lon": 89.8053685, "tags": {"name": "সুন্দরবন", "name:bn": "সুন্দরবন", "name:en": "Sundarban", "tourism": "viewpoint"}}, {"type": "node", "id": 4380391906, "lat": 22.3667985, "lon": 91.7845838, "tags": {"leisure": "park", "name": "Hill"}}, {"type": "node", "id": 4380428837, "lat": 24.3618768, "lon": 88.6042256, "tags": {"leisure": "garden", "name": "Padma Garden"}}, {"type": "node", "id": 4384236190, "lat": 24.3710568, "lon": 88.6028697, "tags": {"addr:street": "Station Road", "name": "মেট্রোপলিটন হোটেল", "name:en": "Rajshahi Metropolitan Hotel", "tourism": "hotel"}}, {"type": "node", "id": 4384267189, "lat": 24.3714403, "lon": 88.6028253, "tags": {"addr:street": "Station Road", "name": "ওয়ে হোম", "name:en": "Way Home", "tourism": "hotel"}}, {"type": "node", "id": 4384847170, "lat": 22.8064464, "lon": 89.5715631, "tags": {"addr:city": "Khulna", "addr:postcode": "9100", "internet_access": "yes", "name": "A+ Building", "operator": "Madrasah Authority", "tourism": "hostel"}}, {"type": "node", "id": 4388651087, "lat": 22.619938, "lon": 90.1060436, "tags": {"historic": "monument", "name": "Shahid Minar"}}, {"type": "node", "id": 4389243368, "lat": 23.2258326, "lon": 90.6547172, "tags": {"addr:city": "Chandpur", "addr:postcode": "3602", "historic": "memorial", "memorial": "war_memorial", "name": "শপথ চত্বর", "name:bn": "শপথ চত্বর", "name:en": "Shapath Chattar"}}, {"type": "node", "id": 4390010618, "lat": 24.8131804, "lon": 88.9412179, "tags": {"leisure": "park", "name": "Naogaon Zilla Parishad Park"}}, {"type": "node", "id": 4390051770, "lat": 24.7679682, "lon": 90.3917736, "tags": {"leisure": "park", "name": "vegetation"}}, {"type": "node", "id": 4390051771, "lat": 24.7677515, "lon": 90.391897, "tags": {"leisure": "park", "name": "vegetation"}}, {"type": "node", "id": 4390051772, "lat": 24.7677271, "lon": 90.3920687, "tags": {"leisure": "park", "name": "vegetation"}}, {"type": "node", "id": 4390051773, "lat": 24.7680657, "lon": 90.3922913, "tags": {"leisure": "park", "name": "vegetation"}}, {"type": "node", "id": 4390115409, "lat": 24.769829, "lon": 90.3981623, "tags": {"leisure": "park", "name": "Joynul Abedin Park with Riverview"}}, {"type": "node", "id": 4390129917, "lat": 24.7580766, "lon": 90.3980558, "tags": {"name": "Mymensingh Zilla School Hostel", "tourism": "hostel"}}, {"type": "node", "id": 4390217550, "lat": 24.7247187, "lon": 90.4418147, "tags": {"leisure": "park", "name": "Botanical garden of BAU"}}, {"type": "node", "id": 4390270316, "lat": 24.7219215, "lon": 90.4394961, "tags": {"name": "Shahid Nuzmull Ahosan hall", "tourism": "hostel"}}, {"type": "node", "id": 4442711764, "lat": 23.0438637, "lon": 89.6307578, "tags": {"addr:city": "Kalia", "addr:postcode": "7520", "addr:street": "Boro Kalia Road", "internet_access": "no", "name": "Paichor Hotel", "tourism": "hotel", "wheelchair": "no"}}, {"type": "node", "id": 4444059490, "lat": 23.7304853, "lon": 90.4250646, "tags": {"addr:housenumber": "64/4", "addr:street": "আউটার সার্কুলার রোড", "name": "হোটেল মেলোডি", "name:bn": "হোটেল মেলোডি", "name:en": "Hotel Melody", "tourism": "hotel"}}, {"type": "node", "id": 4448035835, "lat": 23.738221, "lon": 90.4075163, "tags": {"historic": "monument", "name": "Wills Little Flower School and College language martyrs monument"}}, {"type": "node", "id": 4449028523, "lat": 23.7401455, "lon": 91.0011748, "tags": {"historic": "monument", "name": "shahid miner"}}, {"type": "node", "id": 4455281292, "lat": 21.4329797, "lon": 92.0020272, "tags": {"name": "South Rumaliarchora Coxsbazar", "name:en": "South Rumaliarchora Coxsbazar", "tourism": "artwork"}}, {"type": "node", "id": 4479264284, "lat": 25.7532543, "lon": 89.2522663, "tags": {"name": "Hotel Mohanagor", "tourism": "hotel"}}, {"type": "node", "id": 4486679517, "lat": 23.7897847, "lon": 90.4196222, "tags": {"castle_type": "stately", "historic": "castle", "name": "Accenture Bangladesh Limited", "website": "https://www.accenture.com/", "wheelchair": "no"}}, {"type": "node", "id": 4489623389, "lat": 23.9947, "lon": 90.0424, "tags": {"addr:street": "Saturia - Baliati Rd", "name": "Baliati Palace", "name:en": "Baliati Palace- Manikganj", "opening_hours": "Tu-Sa 09:00-18:00", "tourism": "museum"}}, {"type": "node", "id": 4527792219, "lat": 23.7601299, "lon": 90.3727245, "tags": {"historic": "memorial", "memorial": "obelisk", "name": "আসাদ গেট", "name:bn": "আসাদ গেট", "name:en": "Asad Gate"}}, {"type": "node", "id": 4537372571, "lat": 23.7975471, "lon": 90.4251606, "tags": {"name": "Blossom Hotel", "tourism": "hotel"}}, {"type": "node", "id": 4542559539, "lat": 22.9199053, "lon": 91.5269913, "tags": {"addr:city": "Feni", "addr:housenumber": "Bakshi Bhuiyan Para, Nizkunjara", "addr:postcode": "3901", "addr:street": "Dhaka–Chittagong Highway", "description": "Shamsher Gazi (1712-1760) was a governor in historical Comilla, Bangladesh. It's his birth place & house of his father Pir Baksh Mahmud Kha alias Pir Mohammed.", "historic": "monument", "name": "Shamser Gazi'r Bhita", "name:bn": "শমসের গাজী’র ভিটা", "website": "https://en.wikipedia.org/wiki/Shamsher_Gazi"}}, {"type": "node", "id": 4544141190, "lat": 21.4431232, "lon": 91.9717078, "tags": {"amenity": "restaurant", "name": "Jaman Hotel and Restaurant", "name:en": "Jaman Hotel and Restaurant", "tourism": "hotel"}}, {"type": "node", "id": 4559880594, "lat": 23.7295197, "lon": 90.3938581, "tags": {"artwork_type": "statue", "name": "গৌতম বুদ্ধের মূর্তি", "name:en": "Statue of Gautam Buddha", "tourism": "artwork"}}, {"type": "node", "id": 4561240961, "lat": 23.7398096, "lon": 90.3807856, "tags": {"addr:housenumber": "Number 3", "addr:street": "Dhanmondi", "name": "Ambrosia Guesthouse", "phone": "+88 02-9665760", "tourism": "guest_house"}}, {"type": "node", "id": 4561293743, "lat": 24.9069504, "lon": 91.8707747, "tags": {"name": "Hotel Polash", "tourism": "hotel"}}, {"type": "node", "id": 4561960347, "lat": 24.9016364, "lon": 91.869681, "tags": {"name": "Noorjahan Hotel", "tourism": "hotel"}}, {"type": "node", "id": 4563040293, "lat": 23.7952248, "lon": 90.4083046, "tags": {"name": "Raintree", "name:en": "Raintree", "tourism": "hotel"}}, {"type": "node", "id": 4571810189, "lat": 21.7202223, "lon": 92.5333436, "tags": {"name": "নাফাখুম জলপ্রপাত", "name:en": "Nafakum Waterfall", "tourism": "attraction"}}, {"type": "node", "id": 4579879715, "lat": 23.8095357, "lon": 90.3681201, "tags": {"addr:housenumber": "1", "addr:postcode": "1216", "addr:street": "এভিনিউ -১", "amenity": "hospital", "check_date": "2024-07-14", "internet_access": "no", "name": "Popular Diagnostic Center Ltd Unit-2", "name:bn": "পপুলার ডায়াগনস্টিক সেন্টার", "payment:cash": "yes", "payment:credit_cards": "yes", "payment:debit_cards": "yes", "tourism": "hostel", "wheelchair": "yes"}}, {"type": "node", "id": 4604408079, "lat": 23.7429689, "lon": 91.0023199, "tags": {"historic": "monument", "name": "SAHID MINAR"}}, {"type": "node", "id": 4623316789, "lat": 24.2333437, "lon": 89.8965651, "tags": {"name": "রহিমা ছাত্রাবাস", "name:en": "Rohima hostel", "tourism": "hostel"}}, {"type": "node", "id": 4623316790, "lat": 23.7309546, "lon": 90.4308901, "tags": {"name": "বিসমিল্লাহ হোটেল", "name:en": "Bismillah Hotel", "operator": "আলি ভাই", "tourism": "hotel"}}, {"type": "node", "id": 4634151764, "lat": 22.3283476, "lon": 91.8316676, "tags": {"name": "Raj Hotel", "name:ur": "راج ہوٹل", "tourism": "hotel"}}, {"type": "node", "id": 4634235817, "lat": 22.3308208, "lon": 91.8317094, "tags": {"name": "Shahjahan Hotel", "tourism": "hotel"}}, {"type": "node", "id": 4634235853, "lat": 22.4648385, "lon": 91.9722347, "tags": {"name": "Sufia Kamal Hall", "tourism": "hostel"}}, {"type": "node", "id": 4635071002, "lat": 22.3351182, "lon": 91.8291531, "tags": {"name": "Motel Shaikat", "name:en": "Motel Shaikat", "tourism": "hotel"}}, {"type": "node", "id": 4635199673, "lat": 22.3376773, "lon": 91.837655, "tags": {"leisure": "park", "name": "Laldighi park"}}, {"type": "node", "id": 4635199679, "lat": 22.3421753, "lon": 91.836742, "tags": {"historic": "monument", "name": "Anderkilla Moore"}}, {"type": "node", "id": 4635199684, "lat": 22.3373397, "lon": 91.8337098, "tags": {"historic": "monument", "name": "Chattogram Central Shaheed Minar", "wikidata": "Q31727164", "wikipedia": "bn:কেন্দ্রীয় শহীদ মিনার, চট্টগ্রাম"}}, {"type": "node", "id": 4636808663, "lat": 22.3586591, "lon": 91.8256373, "tags": {"name": "Baul Culture Artwork", "tourism": "artwork"}}, {"type": "node", "id": 4636935433, "lat": 22.3341189, "lon": 91.8377705, "tags": {"name": "Muslim High School Hostel", "tourism": "hostel"}}, {"type": "node", "id": 4636942270, "lat": 22.3339478, "lon": 91.8324942, "tags": {"historic": "monument", "name": "New Market Circle"}}, {"type": "node", "id": 4636942271, "lat": 22.3335728, "lon": 91.832296, "tags": {"historic": "monument", "name": "Liberation Related"}}, {"type": "node", "id": 4637790830, "lat": 20.6287859, "lon": 92.3154202, "tags": {"internet_access": "no", "name": "Labiba Bilash", "smoking": "no", "stars": "2", "tourism": "hotel"}}, {"type": "node", "id": 4667886550, "lat": 23.7146489, "lon": 90.3952358, "tags": {"addr:street": "Shoari Ghat Road", "historic": "archaeological_site", "name": "Boro Katra"}}, {"type": "node", "id": 4667886553, "lat": 23.7183091, "lon": 90.4086047, "tags": {"alt_name": "Al Razzaque", "level": "2", "name": "Hotel Al Razzak International", "tourism": "hotel"}}, {"type": "node", "id": 4668098177, "lat": 23.7046964, "lon": 90.418505, "tags": {"historic": "archaeological_site", "name": "Sutrapur Jamidar Bari", "name:en": "Rebati Mohan Lodge", "wikidata": "Q27056983", "wikimedia_commons": "Category:Sutrapur Jamindar Bari"}}, {"type": "node", "id": 4668159173, "lat": 23.7038752, "lon": 90.4134684, "tags": {"addr:street": "Ahsanullah Road", "historic": "archaeological_site", "name": "Ruplal House", "wikidata": "Q7380421", "wikimedia_commons": "Category:Ruplal House", "wikipedia": "en:Ruplal House"}}, {"type": "node", "id": 4668292079, "lat": 23.7283201, "lon": 90.4108469, "tags": {"addr:street": "S. Nazrul Islam Sharani", "name": "Postal Museum", "tourism": "museum", "wikidata": "Q18988201", "wikipedia": "en:Postal Museum, Dhaka"}}, {"type": "node", "id": 4669613831, "lat": 24.123852, "lon": 91.1333239, "tags": {"name": "Dharanti", "tourism": "attraction"}}, {"type": "node", "id": 4669613832, "lat": 24.1406514, "lon": 91.1892523, "tags": {"historic": "archaeological_site", "historic:civilization": "medieval", "name": "Gokarna Nawab Bari", "wikidata": "Q98804647"}}, {"type": "node", "id": 4669613833, "lat": 24.0542364, "lon": 91.1511153, "tags": {"addr:street": "Dhaka-Sylhet Highway", "historic": "archaeological_site", "name": "Hatirpool"}}, {"type": "node", "id": 4674104036, "lat": 22.6552647, "lon": 89.7772407, "tags": {"historic": "monument", "name": "Freedom Fighters Monument, Dasani, Bagerhat"}}, {"type": "node", "id": 4674112189, "lat": 23.9894901, "lon": 90.3818024, "tags": {"historic": "memorial", "memorial": "war_memorial", "name": "অর্জিত স্বাধীনতা", "name:bn": "অর্জিত স্বাধীনতা", "name:en": "Orjito Sadhinata"}}, {"type": "node", "id": 4686432241, "lat": 24.0794481, "lon": 90.3992305, "tags": {"addr:city": "Bhawal National Park,Araishaprasad,Gazipur.", "addr:street": "Dhaka-Mymensingh High way", "description": "Four Rest Room with attached Bath -Toilet, One Dining Hall, One conference Hall and One Open terrace and other VIP facilities.", "ele": "Two storied.", "name": "Champa Rest House", "tourism": "guest_house"}}, {"type": "node", "id": 4686439003, "lat": 24.0777006, "lon": 90.4017076, "tags": {"addr:city": "Bhawal National Park,Gazipur", "addr:street": "Dhaka-Mymensingh", "name": "Orchid Rest House", "tourism": "guest_house"}}, {"type": "node", "id": 4686442175, "lat": 24.0767848, "lon": 90.3977218, "tags": {"addr:city": "Bhawal National Park,Gazipur", "addr:street": "Dhaka-Mymensingh High way", "name": "Shapla Rest House", "tourism": "guest_house"}}, {"type": "node", "id": 4686446096, "lat": 24.0838666, "lon": 90.4009298, "tags": {"addr:city": "Bhawal National Park,Gazipur.", "addr:street": "Dhaka-Mymensingh High Way", "name": "Rajani Gandha Rest House", "rooms": "4", "tourism": "guest_house"}}, {"type": "node", "id": 4686451459, "lat": 24.0928629, "lon": 90.4044775, "tags": {"addr:city": "Bhawal National Park,gazipur", "addr:street": "Dhaka-Mymenshing High way", "name": "Jasmine Rest House", "tourism": "guest_house"}}, {"type": "node", "id": 4686471044, "lat": 24.0915799, "lon": 90.4128925, "tags": {"addr:street": "Abasar Road", "leisure": "water_park", "name": "Dhali Pond"}}, {"type": "node", "id": 4693483957, "lat": 24.0910765, "lon": 90.4037938, "tags": {"addr:city": "Bhawal National Park,gazipur", "addr:street": "Dhaka-Mymensingh High way", "name": "Malonchay Rest House", "tourism": "guest_house"}}, {"type": "node", "id": 4706761703, "lat": 24.0668386, "lon": 90.3929163, "tags": {"addr:street": "Ananda road", "leisure": "water_park", "name": "Ananda pond"}}, {"type": "node", "id": 4706761784, "lat": 24.077374, "lon": 90.3990801, "tags": {"leisure": "water_park", "name": "Shapla Pond"}}, {"type": "node", "id": 4707811087, "lat": 22.6612057, "lon": 92.1554939, "tags": {"addr:street": "Chittagong - Rangamati Rd", "description": "Closed on Saturday and Sunday", "name": "Rangamati Cultural Institute", "name:bn": "ক্ষুদ্র নৃগোষ্ঠী সাংস্কৃতিক ইনস্টিটিউট জাদুঘর", "tourism": "museum"}}, {"type": "node", "id": 4707811098, "lat": 22.6510119, "lon": 92.19588, "tags": {"name": "Hotel Nadisa international", "tourism": "hotel"}}, {"type": "node", "id": 4707811106, "lat": 22.6405667, "lon": 92.1988585, "tags": {"leisure": "park", "name": "Polwell Nature Park"}}, {"type": "node", "id": 4707811107, "lat": 22.6407894, "lon": 92.2010039, "tags": {"leisure": "park", "name": "DC Banglow Park"}}, {"type": "node", "id": 4707811108, "lat": 22.6405149, "lon": 92.2029449, "tags": {"leisure": "park", "name": "Deer Park"}}, {"type": "node", "id": 4707811121, "lat": 22.6492406, "lon": 92.1838502, "tags": {"name": "Hotel Sufia", "tourism": "hotel"}}, {"type": "node", "id": 4707867074, "lat": 22.7131076, "lon": 92.2490544, "tags": {"name": "Shublong Waterfall", "tourism": "attraction"}}, {"type": "node", "id": 4707867075, "lat": 22.7118724, "lon": 92.2458324, "tags": {"name": "Giri Waterfall", "name:bn": "গিরি ঝর্ণা", "tourism": "attraction"}}, {"type": "node", "id": 4707867076, "lat": 22.7068188, "lon": 92.2373659, "tags": {"name": "Dhupchhori Waterfall", "tourism": "attraction"}}, {"type": "node", "id": 4707867077, "lat": 22.7115541, "lon": 92.2597312, "tags": {"ele": "195", "name": "সুভলং পাহাড়", "name:bn": "সুভলং পাহাড়", "name:en": "Shuvolong Hill", "natural": "peak"}}, {"type": "node", "id": 4707867087, "lat": 22.5018843, "lon": 92.2139094, "tags": {"name": "Lake View Spot", "tourism": "attraction"}}, {"type": "node", "id": 4707867292, "lat": 22.5040485, "lon": 92.1473486, "tags": {"name": "Waggachara Tea Estate", "tourism": "attraction"}}, {"type": "node", "id": 4707867293, "lat": 22.4889164, "lon": 92.1260262, "tags": {"leisure": "park", "name": "Sheikh Russel Aviary and Eco Park"}}, {"type": "node", "id": 4707929117, "lat": 22.1055869, "lon": 92.1731684, "tags": {"name": "Prantik Lake", "tourism": "attraction"}}, {"type": "node", "id": 4708001401, "lat": 21.422869, "lon": 91.9818074, "tags": {"addr:housenumber": "PWD Housing P63", "addr:postcode": "4700", "addr:street": "Kolatoli Road", "email": "kabirhcr@gmail.com", "name": "Bay Touch Hotel Coxs' Bazar", "name:en": "Bay Touch Hotel Coxs' Bazar", "operator": "missiontourism", "phone": "+8801915458398", "tourism": "hotel", "website": "http://www.baytuch.com"}}, {"type": "node", "id": 4708535529, "lat": 22.6542339, "lon": 92.1058876, "tags": {"ele": "494", "name": "ফুরমোন পাহাড়", "name:bn": "ফুরমোন পাহাড়", "name:en": "Furmon Hill", "natural": "peak"}}, {"type": "node", "id": 4709507290, "lat": 21.4203938, "lon": 91.9819307, "tags": {"addr:housenumber": "3 black c", "addr:postcode": "4700", "addr:street": "Kolatoli Main Road", "email": "kabirhcr@gmail.com", "name": "Bashati Bay Resort", "name:en": "Bashati Bay Resort", "opening_hours": "24/7", "operator": "Bashati Bay Resort", "phone": "+8801779803971", "tourism": "hotel", "website": "http://www.bashatibayresort.com"}}, {"type": "node", "id": 4710195969, "lat": 24.0695754, "lon": 91.1073622, "tags": {"historic": "archaeological_site", "name": "Ariphail Mazar"}}, {"type": "node", "id": 4715484647, "lat": 23.7129644, "lon": 90.3962138, "tags": {"historic": "archaeological_site", "name": "Choto Katra", "wikidata": "Q5105405", "wikimedia_commons": "Category:Choto Katra", "wikipedia": "en:Chhota Katra"}}, {"type": "node", "id": 4715484675, "lat": 23.7035338, "lon": 90.4153052, "tags": {"name": "Dhaka Kendro", "tourism": "museum"}}, {"type": "node", "id": 4715558599, "lat": 23.7355354, "lon": 90.4041862, "tags": {"addr:street": "Anjuman Mufidul Islam Road", "fee": "yes", "name": "International Mother Language Museum", "tourism": "museum"}}, {"type": "node", "id": 4715558600, "lat": 23.7238201, "lon": 90.408122, "tags": {"addr:street": "Phonix Road", "name": "Nogor Jadughor", "tourism": "museum"}}, {"type": "node", "id": 4715559671, "lat": 23.7755945, "lon": 90.369509, "tags": {"addr:street": "Syed Mahbub Morshed Avenue", "name": "Liberation War Museum", "tourism": "museum"}}, {"type": "node", "id": 4716534689, "lat": 20.6246484, "lon": 92.3197992, "tags": {"email": "kabirhcr@gmail.com", "name": "সমুদ্র কুঠির রিসোর্ট", "name:en": "Somudra Kutir Resort", "phone": "+8801915458398", "tourism": "hotel"}}, {"type": "node", "id": 4738113517, "lat": 24.0792525, "lon": 90.3989899, "tags": {"leisure": "garden", "name": "Champa Flower Garden"}}, {"type": "node", "id": 4742890459, "lat": 24.0930162, "lon": 90.4028092, "tags": {"name": "Golap Cottage", "tourism": "guest_house"}}, {"type": "node", "id": 4742896593, "lat": 24.0852468, "lon": 90.402061, "tags": {"name": "Sranty Cottage", "tourism": "guest_house"}}, {"type": "node", "id": 4742905749, "lat": 24.0756794, "lon": 90.3986868, "tags": {"name": "Shapla Cottage", "tourism": "guest_house"}}, {"type": "node", "id": 4747062013, "lat": 23.6434757, "lon": 88.8514904, "tags": {"name": "Soyon Bilash", "tourism": "hotel"}}, {"type": "node", "id": 4747062831, "lat": 23.579497, "lon": 88.7000325, "tags": {"name": "কার্পাশডাঙ্গা নজরুল হাট", "name:en": "Karpasdanga Nazrul Hat", "tourism": "museum"}}, {"type": "node", "id": 4747062856, "lat": 23.621763, "lon": 88.6594995, "tags": {"addr:street": "Shibnogor Rd", "leisure": "park", "name": "DC Eco Park"}}, {"type": "node", "id": 4747062878, "lat": 23.6398121, "lon": 88.6555785, "tags": {"historic": "monument", "name": "Atkabar"}}, {"type": "node", "id": 4747062890, "lat": 23.6400417, "lon": 88.6561914, "tags": {"name": "Atkabar Sriti Complex", "tourism": "museum"}}, {"type": "node", "id": 4747259880, "lat": 23.6471832, "lon": 88.5937006, "tags": {"historic": "monument", "name": "Mujibnagar Monument"}}, {"type": "node", "id": 4747259893, "lat": 23.7411704, "lon": 88.6781943, "tags": {"historic": "archaeological_site", "name": "Amjhupi Neelkuthi"}}, {"type": "node", "id": 4747259902, "lat": 23.7768276, "lon": 88.6312228, "tags": {"name": "Hotel Onabil", "tourism": "hotel"}}, {"type": "node", "id": 4748457569, "lat": 23.9080164, "lon": 89.1223523, "tags": {"name": "Hotel Ratul", "tourism": "hotel"}}, {"type": "node", "id": 4748457576, "lat": 23.9112884, "lon": 89.122328, "tags": {"name": "Kushtia Municipality Museum", "tourism": "museum"}}, {"type": "node", "id": 4748459032, "lat": 23.9016133, "lon": 89.1462116, "tags": {"name": "Thakur Lodge", "tourism": "museum"}}, {"type": "node", "id": 4748459041, "lat": 23.883063, "lon": 89.1720191, "tags": {"name": "Mir Mosharraf Hossain Museum & Library", "tourism": "museum"}}, {"type": "node", "id": 4748459057, "lat": 23.9198221, "lon": 89.220085, "tags": {"name": "Shilaidaha Kuthibari", "tourism": "museum"}}, {"type": "node", "id": 4748459099, "lat": 23.8578686, "lon": 89.2349449, "tags": {"name": "Kangal Kutir", "tourism": "museum"}}, {"type": "node", "id": 4752755886, "lat": 23.985928, "lon": 91.1129215, "tags": {"amenity": "place_of_worship", "name": "Kal Bhairab Temple", "religion": "hindu", "tourism": "attraction", "wikidata": "Q62495", "wikimedia_commons": "File:Kal Bhairab in Brahmanbaria, Bangladesh-2.jpg", "wikipedia": "en:Kal Bhairab Temple, Brahmanbaria"}}, {"type": "node", "id": 4761671904, "lat": 24.1984741, "lon": 91.1926416, "tags": {"name": "Nasirnagar Duk Bunglow", "tourism": "guest_house"}}, {"type": "node", "id": 4764950575, "lat": 23.7208811, "lon": 90.3840816, "tags": {"historic": "archaeological_site", "name": "Khan Mohammad Mridha Mosque", "wikidata": "Q2667438", "wikimedia_commons": "Category:Khan Mohammad Mridha Mosque", "wikipedia": "en:Khan Mohammad Mridha Mosque"}}, {"type": "node", "id": 4767546149, "lat": 24.0728247, "lon": 91.1124751, "tags": {"historic": "monument", "name": "Shaheed Minar"}}, {"type": "node", "id": 4770915328, "lat": 24.1085218, "lon": 91.2574905, "tags": {"historic": "archaeological_site", "name": "Haripur Zamidar Bari"}}, {"type": "node", "id": 4773449371, "lat": 24.2790041, "lon": 91.1109692, "tags": {"addr:street": "Kutub Shahi Mosque Rd", "historic": "archaeological_site", "name": "Kutub Shahi Mosque"}}, {"type": "node", "id": 4789836625, "lat": 23.7937612, "lon": 90.4005235, "tags": {"addr:street": "New Airport Road", "name": "হোটেল ঢাকা টুডে", "name:en": "Hotel the Dhaka today (entrance along new airport rd)", "tourism": "hotel"}}, {"type": "node", "id": 4845574839, "lat": 23.79311, "lon": 90.4021, "tags": {"addr:housenumber": "14", "addr:street": "Road 6", "description": "Resident", "name": "Bithika", "tourism": "apartment"}}, {"type": "node", "id": 4854949723, "lat": 24.37367, "lon": 88.6037086, "tags": {"name": "হোটেল ডালাস ইন্টারন্যাশনাল", "name:en": "Hotel Dalas International", "tourism": "hotel"}}, {"type": "node", "id": 4871957537, "lat": 24.3094064, "lon": 91.7252512, "tags": {"addr:city": "Sreemangal", "addr:street": "Dhaka - Moulvibazar Highway", "name": "Sreemangal Guest House", "name:bn": "শ্রীমঙ্গল গেস্ট হাউস", "tourism": "guest_house"}}, {"type": "node", "id": 4878470023, "lat": 23.8070772, "lon": 90.3686516, "tags": {"name": "১০ নম্বর গোল চক্কর", "name:en": "10 Number Gol Chakkar", "tourism": "attraction", "wheelchair": "no"}}, {"type": "node", "id": 4892361668, "lat": 24.3039414, "lon": 91.7413055, "tags": {"addr:city": "Sreemangal", "historic": "memorial", "name": "Mass killing ground 71", "name:bn": "বধ্যভূমি ৭১"}}, {"type": "node", "id": 4896907580, "lat": 23.7265547, "lon": 90.421629, "tags": {"artwork_type": "sculpture", "is_in": "Dhaka", "name": "শাপলা চত্বর", "name:bn": "শাপলা চত্বর", "name:en": "Shapla Square", "tourism": "artwork", "wikidata": "Q7489287", "wikimedia_commons": "Category:Shapla Square", "wikipedia": "en:Shapla Square"}}, {"type": "node", "id": 4899060714, "lat": 23.7301658, "lon": 90.4083462, "tags": {"name": "Hotel Delux", "tourism": "hotel"}}, {"type": "node", "id": 4899516313, "lat": 24.3986888, "lon": 88.6113371, "tags": {"name": "Shahid Zia Shishu Park", "tourism": "theme_park"}}, {"type": "node", "id": 4904552062, "lat": 24.363178, "lon": 88.5891657, "tags": {"leisure": "park", "name": "Lalon shah Park"}}, {"type": "node", "id": 4954631390, "lat": 23.75407, "lon": 90.392085, "tags": {"brand": "Best Western", "brand:wikidata": "Q830334", "name": "BestWestern LaVinci", "phone": "+880 2-9119352", "tourism": "hotel", "website": "book.bestwestern.com"}}, {"type": "node", "id": 4986102922, "lat": 23.7443085, "lon": 90.4150608, "tags": {"addr:housenumber": "263, Malibag", "addr:postcode": "1217", "addr:street": "Malibag College Road", "email": "anedhaka@gmail.com", "name": "এবস্টট্রাক্ট বিল্ডার্স বিডি লিঃ", "name:bn": "এবস্টট্রাক্ট বিল্ডার্স বিডি লিঃ     ", "name:en": "Abstract Builders BD Ltd", "phone": "+880293517", "tourism": "apartment", "website": "http://www.abstracbuildersbd.com"}}, {"type": "node", "id": 4986125621, "lat": 23.7452059, "lon": 90.4132409, "tags": {"addr:housenumber": "244", "addr:neighbourhood": "Malibagh", "addr:postcode": "1217", "addr:street": "New Circular Road", "email": "doicollege@gmail.com", "name": "ঢাকা অক্সফোর্ড ইন্টারন্যাশনাল কলেজ", "name:bn": "ঢাকা অক্সফোর্ড ইন্টারন্যাশনাল কলেজ", "name:en": "Dhaka Oxford International College", "opening_hours": "24/7", "phone": "+88029359124", "tourism": "attraction", "website": "http://www.dhakaoxfordintcollege.edu.bd"}}, {"type": "node", "id": 4991267622, "lat": 22.7400959, "lon": 90.1545383, "tags": {"name": "ভাসমান পেয়ারা বাজার", "name:en": "Floating Guava Market", "tourism": "attraction"}}, {"type": "node", "id": 5022447536, "lat": 22.7014653, "lon": 90.3727762, "tags": {"name": "Barisal Divisional Museum", "tourism": "museum"}}, {"type": "node", "id": 5022447537, "lat": 22.6957548, "lon": 90.3737897, "tags": {"leisure": "park", "name": "মুক্তিযোদ্ধা পার্ক", "name:bn": "মুক্তিযোদ্ধা পার্ক"}}, {"type": "node", "id": 5022526129, "lat": 22.762599, "lon": 90.3302114, "tags": {"historic": "archaeological_site", "name": "Lakutia Zamindar Bari"}}, {"type": "node", "id": 5022526151, "lat": 22.7610379, "lon": 90.2893589, "tags": {"leisure": "park", "name": "Durga Sagor"}}, {"type": "node", "id": 5022526180, "lat": 22.8069985, "lon": 90.1934579, "tags": {"addr:street": "Chakhar Rd", "name": "Sher-e-Bangla Museum", "tourism": "museum"}}, {"type": "node", "id": 5024147264, "lat": 22.5973565, "lon": 89.9865554, "tags": {"historic": "archaeological_site", "name": "Rayerkathi Jomidar Bari"}}, {"type": "node", "id": 5024147282, "lat": 22.557516, "lon": 89.9587396, "tags": {"addr:street": "Namazpur Rd", "leisure": "park", "name": "DC Park Pirojpur"}}, {"type": "node", "id": 5024147284, "lat": 22.3830925, "lon": 89.9428716, "tags": {"historic": "archaeological_site", "name": "Momin Masjid"}}, {"type": "node", "id": 5024147319, "lat": 22.6818501, "lon": 90.1668485, "tags": {"historic": "archaeological_site", "name": "Kirtipasha Jamidar Bari"}}, {"type": "node", "id": 5024148757, "lat": 22.6391538, "lon": 90.2038783, "tags": {"leisure": "park", "name": "Jhalokathi Pouro Mini Park"}}, {"type": "node", "id": 5039271930, "lat": 22.7399555, "lon": 90.1553918, "tags": {"name": "Floating Guava Market", "tourism": "yes"}}, {"type": "node", "id": 5043839281, "lat": 24.9308802, "lon": 89.9346216, "tags": {"name": "College Hostel", "tourism": "hostel"}}, {"type": "node", "id": 5076584523, "lat": 24.6741824, "lon": 89.8282766, "tags": {"name": "Type D U", "tourism": "apartment"}}, {"type": "node", "id": 5097494197, "lat": 22.2003537, "lon": 92.2161139, "tags": {"addr:city": "Bandarban", "leisure": "park", "name": "Tiger Hill"}}, {"type": "node", "id": 5103430833, "lat": 25.0710414, "lon": 91.392649, "tags": {"addr:city": "Sunamganj", "addr:street": "সুনামগঞ্জ-সিলেট মহাসড়ক", "museum": "person", "name": "Hason Raja Museum", "tourism": "museum", "wikidata": "Q5679407", "wikipedia": "en:Hason Raja"}}, {"type": "node", "id": 5103430898, "lat": 25.1779814, "lon": 91.2486233, "tags": {"name": "Shimul Bagan", "tourism": "attraction"}}, {"type": "node", "id": 5103430899, "lat": 25.1921691, "lon": 91.2509062, "tags": {"name": "Barek Tila", "tourism": "attraction"}}, {"type": "node", "id": 5116469342, "lat": 23.6681627, "lon": 90.5607208, "tags": {"name": "CH Castle & Resortসিএইচ ক্যাসল এন্ড রিজোর্ট", "tourism": "motel"}}, {"type": "node", "id": 5118739838, "lat": 23.5862324, "lon": 90.6358226, "tags": {"leisure": "park", "name": "ডাচ-বাংলা প্যাক লিমিটেড ফ্যাক্টরী", "name:en": "Dutch-Bangla Pack Limited Factory"}}, {"type": "node", "id": 5118814801, "lat": 23.5503756, "lon": 90.6656231, "tags": {"leisure": "park", "name": "Active Pharmaceutical Ingredients(API) Industrial Park"}}, {"type": "node", "id": 5118900268, "lat": 23.5314926, "lon": 90.7154868, "tags": {"name": "Vandari Hotel", "tourism": "hotel"}}, {"type": "node", "id": 5118906019, "lat": 23.5315831, "lon": 90.7158681, "tags": {"leisure": "park", "name": "Daudkandi Eidgah"}}, {"type": "node", "id": 5118919915, "lat": 23.534228, "lon": 90.72496, "tags": {"leisure": "park", "name": "দাউদকান্দি ঈদগাহ ময়দান", "name:en": "Daudkandi Eidgah Ground"}}, {"type": "node", "id": 5123553588, "lat": 24.2777433, "lon": 89.929127, "tags": {"name": "HOTEL VIP INN", "tourism": "hotel"}}, {"type": "node", "id": 5123555376, "lat": 24.2820084, "lon": 89.920604, "tags": {"name": "Maya Hotel মায়া হোটেল", "tourism": "hotel"}}, {"type": "node", "id": 5123631843, "lat": 23.4762833, "lon": 91.0910232, "tags": {"name": "Dhaka highway hotel and resturant", "tourism": "hotel"}}, {"type": "node", "id": 5123644019, "lat": 23.4786037, "lon": 91.1091757, "tags": {"name": "Mostafa Hotel", "tourism": "hotel"}}, {"type": "node", "id": 5123720357, "lat": 23.4788757, "lon": 91.1252148, "tags": {"name": "Matri Bhandar Hotel and Sweets", "tourism": "hotel"}}, {"type": "node", "id": 5123724814, "lat": 23.4801789, "lon": 91.1265654, "tags": {"name": "Golden Inn Residential Hotel", "tourism": "hotel"}}, {"type": "node", "id": 5123738191, "lat": 23.4787685, "lon": 91.133031, "tags": {"name": "Highway Mainamati হাইওয়ে ময়নামতি", "tourism": "hotel"}}, {"type": "node", "id": 5123861511, "lat": 23.4524871, "lon": 91.1451651, "tags": {"name": "Hotel moinamoti comilla", "tourism": "hotel"}}, {"type": "node", "id": 5123958221, "lat": 24.4191764, "lon": 89.5517463, "tags": {"historic": "memorial", "name": "Sirajganj Moar", "name:bn": "সিরাজগঞ্জ রোড চৌরাস্তা"}}, {"type": "node", "id": 5124024502, "lat": 23.4168084, "lon": 91.1769734, "tags": {"name": "ফারজানা হোটেল", "tourism": "hotel"}}, {"type": "node", "id": 5124063420, "lat": 24.3428092, "lon": 89.0712783, "tags": {"name": "Bonoful Hotel", "tourism": "hotel"}}, {"type": "node", "id": 5124068720, "lat": 24.3439048, "lon": 89.0702917, "tags": {"name": "Modubon Hotel", "tourism": "hotel"}}, {"type": "node", "id": 5124080924, "lat": 24.3447395, "lon": 89.0705405, "tags": {"name": "Ahmedpur New Adorso Hotel And Resturent", "tourism": "hotel"}}, {"type": "node", "id": 5125772048, "lat": 23.329898, "lon": 91.2752536, "tags": {"name": "শিতলিয়া রাস্তার মাথা", "tourism": "hotel"}}, {"type": "node", "id": 5125784325, "lat": 22.9738686, "lon": 90.2322429, "tags": {"name": "Gournadi Guest House", "tourism": "guest_house"}}, {"type": "node", "id": 5126202520, "lat": 23.1296531, "lon": 91.3260724, "tags": {"name": "Dream House Bhuiyan Bari Guest House", "tourism": "guest_house"}}, {"type": "node", "id": 5127793600, "lat": 24.3667347, "lon": 88.7551766, "tags": {"name": "জাতীয় ট্রাভেলস বুথ", "name:bn": "জাতীয় ট্রাভেলস বুথ", "name:en": "National Travels Booth", "tourism": "information"}}, {"type": "node", "id": 5128104370, "lat": 22.864731, "lon": 91.5451428, "tags": {"leisure": "park", "name": "আরশি নগর পার্ক", "name:en": "Arshi Nagar Park"}}, {"type": "node", "id": 5128304335, "lat": 24.3781225, "lon": 88.7088173, "tags": {"leisure": "park", "name": "Natural Garden & Resort প্রাকৃতিক গার্ডেন ও রিসোর্ট"}}, {"type": "node", "id": 5128486066, "lat": 24.3982768, "lon": 88.6490551, "tags": {"name": "Safrin Cottage", "tourism": "hotel"}}, {"type": "node", "id": 5129870954, "lat": 22.8653481, "lon": 90.2651713, "tags": {"addr:street": "Jayosree, Uzirpur-8220, Dhaka - Barisal Hwy", "name": "Molla Hotel(মোল্লা হোটেল)", "tourism": "hotel"}}, {"type": "node", "id": 5129968933, "lat": 24.4085513, "lon": 88.6125628, "tags": {"addr:city": "Nowdapara", "name": "Mohila Hostel (RMPI)", "tourism": "hostel"}}, {"type": "node", "id": 5129974657, "lat": 24.4085971, "lon": 88.6087549, "tags": {"historic": "monument", "name": "Amm chottor"}}, {"type": "node", "id": 5129997960, "lat": 22.8159726, "lon": 90.2443526, "tags": {"name": "DHALY hotel & restaurant", "tourism": "hotel"}}, {"type": "node", "id": 5130124352, "lat": 24.3750309, "lon": 88.6142823, "tags": {"addr:city": "Rajshahi", "name": "Railway Officers Rest House, Rajshahi", "tourism": "hotel"}}, {"type": "node", "id": 5130237073, "lat": 22.8301252, "lon": 90.2818858, "tags": {"name": "স্পিকার আঃ জব্বার খান হোস্টেল", "tourism": "hostel"}}, {"type": "node", "id": 5130331735, "lat": 24.3703234, "lon": 88.6236657, "tags": {"name": "Chistia Nibash Prvt. Ltd", "tourism": "hostel"}}, {"type": "node", "id": 5130341635, "lat": 24.3699266, "lon": 88.6235299, "tags": {"name": "পদ্মা ছাত্রাবাস", "tourism": "hostel"}}, {"type": "node", "id": 5130392538, "lat": 24.8949033, "lon": 91.8672371, "tags": {"addr:city": "Sylhet", "name": "Museum of Raja's", "tourism": "museum"}}, {"type": "node", "id": 5130471672, "lat": 24.3600414, "lon": 88.6236344, "tags": {"name": "Nupur Ladies Hostel নুপুর লেডিস হোস্টেল", "tourism": "hotel"}}, {"type": "node", "id": 5132235198, "lat": 24.8974952, "lon": 91.9065046, "tags": {"addr:city": "Sylhet", "name": "Sylhet Government College Boy's Hostel Area", "tourism": "hostel"}}, {"type": "node", "id": 5132544169, "lat": 24.3683394, "lon": 88.581116, "tags": {"historic": "monument", "name": "C & B Mor, Saheb Bazar Rd,Rajshahi"}}, {"type": "node", "id": 5132663308, "lat": 24.3681607, "lon": 88.5808732, "tags": {"historic": "monument", "name": "Functional functional 628 প্রায়োগিক কার্মিক 628"}}, {"type": "node", "id": 5132664953, "lat": 24.3688322, "lon": 88.5812841, "tags": {"name": "The Theme Rainy Park থিম রেইনি পার্ক", "tourism": "theme_park"}}, {"type": "node", "id": 5132688260, "lat": 24.3695224, "lon": 88.5712222, "tags": {"name": "Rajshahi Central Zoo Gate-1", "tourism": "zoo"}}, {"type": "node", "id": 5132742716, "lat": 24.3834569, "lon": 88.5464554, "tags": {"historic": "monument", "name": "Kazi Nazrul Islam Avenue Kashiadanga Mor, Rajshahi - Nawabganj Hwy,Rajshahi \t,RajshahiRajshahi কাজী নজরুল ইসলাম এভিনিউ রাজশাহী"}}, {"type": "node", "id": 5134511017, "lat": 24.5941382, "lon": 88.2807769, "tags": {"name": "Asha Lodge আশালজ", "tourism": "hostel"}}, {"type": "node", "id": 5134513567, "lat": 24.5940894, "lon": 88.2804895, "tags": {"name": "KHUSHI'R JHORNA খুশীর ঝর্না", "tourism": "hostel"}}, {"type": "node", "id": 5134516014, "lat": 24.5945324, "lon": 88.2809067, "tags": {"name": "AHMEED NIR", "tourism": "hostel"}}, {"type": "node", "id": 5134613665, "lat": 24.5900391, "lon": 88.2738855, "tags": {"addr:city": "Chapainawabganj", "name": "Hotel Al-Hera", "tourism": "hotel"}}, {"type": "node", "id": 5134624004, "lat": 24.5899245, "lon": 88.2701277, "tags": {"name": "Osman Hotel and Restaurant ওসমান হোটেল রেস্টুরেন্টে", "tourism": "hotel"}}, {"type": "node", "id": 5135013087, "lat": 24.7201766, "lon": 88.1715267, "tags": {"leisure": "park", "name": "Am bagan"}}, {"type": "node", "id": 5135013088, "lat": 24.7168169, "lon": 88.1727222, "tags": {"leisure": "park", "name": "Am bagan"}}, {"type": "node", "id": 5135013089, "lat": 24.7159175, "lon": 88.1692478, "tags": {"leisure": "park", "name": "Am bagan"}}, {"type": "node", "id": 5135013090, "lat": 24.7206857, "lon": 88.1752067, "tags": {"leisure": "park", "name": "Am bagan"}}, {"type": "node", "id": 5135013091, "lat": 24.7226879, "lon": 88.1714707, "tags": {"leisure": "park", "name": "Am bagan"}}, {"type": "node", "id": 5135013092, "lat": 24.7244356, "lon": 88.1734134, "tags": {"leisure": "park", "name": "Am bagan"}}, {"type": "node", "id": 5135013093, "lat": 24.7226879, "lon": 88.1773362, "tags": {"leisure": "park", "name": "Am bagan"}}, {"type": "node", "id": 5135013094, "lat": 24.7250294, "lon": 88.175655, "tags": {"leisure": "park", "name": "Am bagan"}}, {"type": "node", "id": 5142138897, "lat": 21.3951302, "lon": 91.9996854, "tags": {"leisure": "park", "name": "দরিয়া নগর সী ভিউ পার্ক", "name:bn": "দরিয়া নগর সী ভিউ পার্ক", "name:en": "Doria Nagar Sea View Park"}}, {"type": "node", "id": 5142167126, "lat": 21.4132419, "lon": 91.9854436, "tags": {"name": "Sandy Land", "name:bn": "স্যান্ডী ল্যান্ড", "name:en": "Sandy Land", "tourism": "hotel"}}, {"type": "node", "id": 5142315515, "lat": 21.4574503, "lon": 92.1029836, "tags": {"leisure": "garden", "name": "Ramu Rubber Bagan রামু রাবার বাগান"}}, {"type": "node", "id": 5142369370, "lat": 24.4541471, "lon": 88.6145013, "tags": {"leisure": "park", "name": "Murad Nursary Sell Center মুরাদ নার্সারী"}}, {"type": "node", "id": 5142408398, "lat": 21.5743398, "lon": 92.0702023, "tags": {"name": "Shohag Regency সোহাগ কুটির", "tourism": "hotel"}}, {"type": "node", "id": 5142460545, "lat": 24.5461732, "lon": 88.6470672, "tags": {"addr:city": "Rajshahi", "name": "Mohanpur Circuit House মোহনপুর সার্কিট হাউসে", "tourism": "hostel"}}, {"type": "node", "id": 5142768286, "lat": 24.8182759, "lon": 88.9381054, "tags": {"name": "hotel SK হোটেল এস কে", "tourism": "hotel"}}, {"type": "node", "id": 5142821476, "lat": 24.8133786, "lon": 88.9402189, "tags": {"name": "Solaiman Mishtanno Vandar O Restaurant", "tourism": "hotel"}}, {"type": "node", "id": 5144314334, "lat": 21.9315658, "lon": 92.0598616, "tags": {"leisure": "park", "name": "Chunati Wild Life"}}, {"type": "node", "id": 5144367336, "lat": 21.9763545, "lon": 92.0709579, "tags": {"leisure": "nature_reserve", "name": "Green View Nursery"}}, {"type": "node", "id": 5146648585, "lat": 24.7711161, "lon": 89.3962376, "tags": {"historic": "castle", "name": "Army APC Statue আর্মি এপিসি মূর্তি"}}, {"type": "node", "id": 5146660146, "lat": 24.7619965, "lon": 89.3965008, "tags": {"name": "Niribili Chhatrabash নিরিবিলি ছাত্রাবাস", "tourism": "hostel"}}, {"type": "node", "id": 5146691240, "lat": 24.8945503, "lon": 91.8676538, "tags": {"addr:city": "Sylhet", "name": "Grand Palace Hotel & Resorts", "tourism": "hotel"}}, {"type": "node", "id": 5146815424, "lat": 24.6902681, "lon": 89.4077913, "tags": {"name": "Malek Hotel মালেক হোটেল", "tourism": "hotel"}}, {"type": "node", "id": 5146939265, "lat": 24.6710519, "lon": 89.4167376, "tags": {"name": "হোটেল কি নাম ( Hotel Ki Naam)", "name:en": "Hotel ke naam", "tourism": "hotel"}}, {"type": "node", "id": 5148838294, "lat": 24.2537277, "lon": 89.9202, "tags": {"name": "Buro Rest House Tangail", "tourism": "guest_house"}}, {"type": "node", "id": 5148988508, "lat": 22.2937195, "lon": 91.9820807, "tags": {"leisure": "park", "name": "পটিয়া শিশু পার্ক"}}, {"type": "node", "id": 5148992725, "lat": 24.1832155, "lon": 89.5946829, "tags": {"historic": "castle", "name": "Rabindranath statue"}}, {"type": "node", "id": 5149177735, "lat": 23.9583818, "lon": 89.6064703, "tags": {"leisure": "park", "name": "কাশীনাথপুর ফুলবাগান"}}, {"type": "node", "id": 5149204772, "lat": 22.2988222, "lon": 91.9719427, "tags": {"leisure": "park", "name": "Upozilla Parishod Complex"}}, {"type": "node", "id": 5152958986, "lat": 22.2344096, "lon": 91.7921425, "tags": {"name": "পতেঙ্গা সী বিচ", "name:en": "Patenga Sea Beach", "natural": "beach", "surface": "sand"}}, {"type": "node", "id": 5153044821, "lat": 22.2820979, "lon": 91.7796147, "tags": {"leisure": "park", "name": "Sailors Coloney 2 Park"}}, {"type": "node", "id": 5153062671, "lat": 24.0113759, "lon": 89.2562039, "tags": {"historic": "castle", "name": "Evergreen Pabna চিরহরিত পাবনা"}}, {"type": "node", "id": 5153065121, "lat": 24.0132637, "lon": 89.2540365, "tags": {"name": "Green Valley Hostel সবুজ উপত্যকা হোস্টেল", "tourism": "hostel"}}, {"type": "node", "id": 5153089658, "lat": 24.0683667, "lon": 89.2080883, "tags": {"leisure": "park", "name": "Tebunia IT Park"}}, {"type": "node", "id": 5153105744, "lat": 22.5394285, "lon": 90.3449833, "tags": {"addr:street": "সাহেবগঞ্জ রোড, Bakergonj", "name": "Bakergonj Guest House", "tourism": "guest_house"}}, {"type": "node", "id": 5153126791, "lat": 22.5408394, "lon": 90.3385829, "tags": {"addr:street": "বরিশাল সুবিদখালী সড়ক, Bakergonj", "name": "Bakerganj Dak Banglow", "tourism": "guest_house"}}, {"type": "node", "id": 5153203779, "lat": 24.1086723, "lon": 89.1289901, "tags": {"designation": "Art Cottage Technologies", "name": "Art Cottage Technologies", "source": "GPS", "tourism": "artwork"}}, {"type": "node", "id": 5153227041, "lat": 24.1123675, "lon": 89.1216623, "tags": {"historic": "monument", "name": "Dashuria circle"}}, {"type": "node", "id": 5153237099, "lat": 22.3812413, "lon": 91.8302299, "tags": {"leisure": "garden", "name": "Hashem Polli হাশেম পল্লী"}}, {"type": "node", "id": 5153279560, "lat": 22.4058138, "lon": 91.8194632, "tags": {"addr:city": "Chittagong", "name": "Hossain Villa, Baluchara", "tourism": "apartment"}}, {"type": "node", "id": 5153462040, "lat": 23.7693481, "lon": 88.6415455, "tags": {"historic": "monument", "name": "Shaheed Minar"}}, {"type": "node", "id": 5154652122, "lat": 24.5511085, "lon": 89.1950949, "tags": {"leisure": "garden", "name": "Chalanbill", "wetland": "swamp"}},